[{"id":1111051500,"name":"서울특별시 종로구 청운효자동","lon":126.9706519,"lat":37.5841367},
    {"id":1111053000,"name":"서울특별시 종로구 사직동","lon":126.97095555555556,"lat":37.57326944444445},
    {"id":1111054000,"name":"서울특별시 종로구 삼청동","lon":126.98397777777778,"lat":37.582425},
    {"id":1111055000,"name":"서울특별시 종로구 부암동","lon":126.96644444444445,"lat":37.58985555555556},
    {"id":1111056000,"name":"서울특별시 종로구 평창동","lon":126.96887777777778,"lat":37.60252222222223},
    {"id":1111057000,"name":"서울특별시 종로구 무악동","lon":126.96120833333333,"lat":37.571538888888895},
    {"id":1111058000,"name":"서울특별시 종로구 교남동","lon":126.9641,"lat":37.569075000000005},
    {"id":1111060000,"name":"서울특별시 종로구 가회동","lon":126.98691111111111,"lat":37.57725277777778},
    {"id":1111061500,"name":"서울특별시 종로구 종로1.2.3.4가동","lon":126.99106666666667,"lat":37.567886111111115},
    {"id":1111063000,"name":"서울특별시 종로구 종로5.6가동","lon":127.00715555555556,"lat":37.569211111111116},
    {"id":1111064000,"name":"서울특별시 종로구 이화동","lon":127.00639722222222,"lat":37.57421388888889},
    {"id":1111065000,"name":"서울특별시 종로구 혜화동","lon":127.00262222222223,"lat":37.58398888888889},
    {"id":1111067000,"name":"서울특별시 종로구 창신제1동","lon":127.01846388888889,"lat":37.567936111111116},
    {"id":1111068000,"name":"서울특별시 종로구 창신제2동","lon":127.01296388888889,"lat":37.571644444444445},
    {"id":1111069000,"name":"서울특별시 종로구 창신제3동","lon":127.01716388888889,"lat":37.575047222222224},
    {"id":1111070000,"name":"서울특별시 종로구 숭인제1동","lon":127.01766388888889,"lat":37.575027777777784},
    {"id":1111071000,"name":"서울특별시 종로구 숭인제2동","lon":127.02205555555555,"lat":37.57203611111112},
    {"id":1114052000,"name":"서울특별시 중구 소공동","lon":126.97910833333333,"lat":37.55963055555555},
    {"id":1114054000,"name":"서울특별시 중구 회현동","lon":126.98144444444445,"lat":37.55448333333333},
    {"id":1114055000,"name":"서울특별시 중구 명동","lon":126.98788888888889,"lat":37.55723611111111},
    {"id":1114057000,"name":"서울특별시 중구 필동","lon":126.99771111111112,"lat":37.55735277777777},
    {"id":1114058000,"name":"서울특별시 중구 장충동","lon":127.00993333333334,"lat":37.55911666666666},
    {"id":1114059000,"name":"서울특별시 중구 광희동","lon":127.00716388888888,"lat":37.561730555555556},
    {"id":1114060500,"name":"서울특별시 중구 을지로동","lon":126.99343055555556,"lat":37.5639},
    {"id":1114061500,"name":"서울특별시 중구 신당동","lon":127.01663333333333,"lat":37.55931111111111},
    {"id":1114062500,"name":"서울특별시 중구 다산동","lon":127.01030833333333,"lat":37.55161666666666},
    {"id":1114063500,"name":"서울특별시 중구 약수동","lon":127.01108611111111,"lat":37.54965833333333},
    {"id":1114064500,"name":"서울특별시 중구 청구동","lon":127.01678888888888,"lat":37.55425833333333},
    {"id":1114065000,"name":"서울특별시 중구 신당제5동","lon":127.02396666666667,"lat":37.562330555555555},
    {"id":1114066500,"name":"서울특별시 중구 동화동","lon":127.02154166666666,"lat":37.557227777777776},
    {"id":1114067000,"name":"서울특별시 중구 황학동","lon":127.02349722222222,"lat":37.56466388888889},
    {"id":1114068000,"name":"서울특별시 중구 중림동","lon":126.9666,"lat":37.552033333333334},
    {"id":1117051000,"name":"서울특별시 용산구 후암동","lon":126.98026666666667,"lat":37.545880555555556},
    {"id":1117052000,"name":"서울특별시 용산구 용산2가동","lon":126.98756388888889,"lat":37.54311944444444},
    {"id":1117053000,"name":"서울특별시 용산구 남영동","lon":126.97696666666667,"lat":37.542833333333334},
    {"id":1117055500,"name":"서울특별시 용산구 청파동","lon":126.97204166666667,"lat":37.54255555555555},
    {"id":1117056000,"name":"서울특별시 용산구 원효로제1동","lon":126.96834166666667,"lat":37.535869444444444},
    {"id":1117057000,"name":"서울특별시 용산구 원효로제2동","lon":126.95357777777778,"lat":37.531591666666664},
    {"id":1117058000,"name":"서울특별시 용산구 효창동","lon":126.96339722222223,"lat":37.53895277777777},
    {"id":1117059000,"name":"서울특별시 용산구 용문동","lon":126.9596638888889,"lat":37.536249999999995},
    {"id":1117062500,"name":"서울특별시 용산구 한강로동","lon":126.97153333333334,"lat":37.526241666666664},
    {"id":1117063000,"name":"서울특별시 용산구 이촌제1동","lon":126.97535555555555,"lat":37.51840277777778},
    {"id":1117064000,"name":"서울특별시 용산구 이촌제2동","lon":126.95633055555555,"lat":37.524030555555555},
    {"id":1117065000,"name":"서울특별시 용산구 이태원제1동","lon":126.99704166666666,"lat":37.529491666666665},
    {"id":1117066000,"name":"서울특별시 용산구 이태원제2동","lon":126.99184444444444,"lat":37.53797222222222},
    {"id":1117068500,"name":"서울특별시 용산구 한남동","lon":127.00264444444444,"lat":37.53188611111111},
    {"id":1117069000,"name":"서울특별시 용산구 서빙고동","lon":126.99677777777778,"lat":37.517605555555555},
    {"id":1117070000,"name":"서울특별시 용산구 보광동","lon":127.00233333333334,"lat":37.52346388888889},
    {"id":1120052000,"name":"서울특별시 성동구 왕십리제2동","lon":127.03271111111111,"lat":37.55833611111111},
    {"id":1120053500,"name":"서울특별시 성동구 왕십리도선동","lon":127.0255591,"lat":37.5677544},
    {"id":1120054000,"name":"서울특별시 성동구 마장동","lon":127.04756388888889,"lat":37.56343333333333},
    {"id":1120055000,"name":"서울특별시 성동구 사근동","lon":127.04795555555556,"lat":37.55840555555555},
    {"id":1120056000,"name":"서울특별시 성동구 행당제1동","lon":127.03807777777777,"lat":37.55535277777778},
    {"id":1120057000,"name":"서울특별시 성동구 행당제2동","lon":127.03153333333333,"lat":37.555575},
    {"id":1120058000,"name":"서울특별시 성동구 응봉동","lon":127.03549722222222,"lat":37.55034722222222},
    {"id":1120059000,"name":"서울특별시 성동구 금호1가동","lon":127.02394444444444,"lat":37.55206944444444},
    {"id":1120061500,"name":"서울특별시 성동구 금호2.3가동","lon":127.020859,"lat":37.553188},
    {"id":1120062000,"name":"서울특별시 성동구 금호4가동","lon":127.024475,"lat":37.54447222222222},
    {"id":1120064500,"name":"서울특별시 성동구 옥수동","lon":127.013463,"lat":37.543717},
    {"id":1120065000,"name":"서울특별시 성동구 성수1가제1동","lon":127.0519861111111,"lat":37.53895833333333},
    {"id":1120066000,"name":"서울특별시 성동구 성수1가제2동","lon":127.04636388888889,"lat":37.543527777777776},
    {"id":1120067000,"name":"서울특별시 성동구 성수2가제1동","lon":127.0562,"lat":37.536702777777776},
    {"id":1120069000,"name":"서울특별시 성동구 성수2가제3동","lon":127.05733333333333,"lat":37.545430555555555},
    {"id":1120072000,"name":"서울특별시 성동구 송정동","lon":127.07170833333333,"lat":37.55172777777778},
    {"id":1120079000,"name":"서울특별시 성동구 용답동","lon":127.05743333333334,"lat":37.561366666666665},
    {"id":1121571000,"name":"서울특별시 광진구 화양동","lon":127.07346388888888,"lat":37.54378611111111},
    {"id":1121573000,"name":"서울특별시 광진구 군자동","lon":127.07799722222222,"lat":37.55235277777778},
    {"id":1121574000,"name":"서울특별시 광진구 중곡제1동","lon":127.08216388888889,"lat":37.55784166666666},
    {"id":1121575000,"name":"서울특별시 광진구 중곡제2동","lon":127.08354444444444,"lat":37.557475},
    {"id":1121576000,"name":"서울특별시 광진구 중곡제3동","lon":127.08225277777777,"lat":37.565916666666666},
    {"id":1121577000,"name":"서울특별시 광진구 중곡제4동","lon":127.08935277777778,"lat":37.56251111111111},
    {"id":1121578000,"name":"서울특별시 광진구 능동","lon":127.08264444444444,"lat":37.551027777777776},
    {"id":1121581000,"name":"서울특별시 광진구 광장동","lon":127.10530833333333,"lat":37.54421388888888},
    {"id":1121582000,"name":"서울특별시 광진구 자양제1동","lon":127.08441944444444,"lat":37.53168611111111},
    {"id":1121583000,"name":"서울특별시 광진구 자양제2동","lon":127.08659999999999,"lat":37.525999999999996},
    {"id":1121584000,"name":"서울특별시 광진구 자양제3동","lon":127.07503055555556,"lat":37.53103333333333},
    {"id":1121584700,"name":"서울특별시 광진구 자양제4동","lon":127.06725277777777,"lat":37.53748611111111},
    {"id":1121585000,"name":"서울특별시 광진구 구의제1동","lon":127.08786666666666,"lat":37.539674999999995},
    {"id":1121586000,"name":"서울특별시 광진구 구의제2동","lon":127.09210833333333,"lat":37.544438888888884},
    {"id":1121587000,"name":"서울특별시 광진구 구의제3동","lon":127.09968888888888,"lat":37.536138888888885},
    {"id":1123053600,"name":"서울특별시 동대문구 용신동","lon":127.0372169,"lat":37.5758185},
    {"id":1123054500,"name":"서울특별시 동대문구 제기동","lon":127.0377843,"lat":37.5830767},
    {"id":1123056000,"name":"서울특별시 동대문구 전농제1동","lon":127.04986666666666,"lat":37.575211111111116},
    {"id":1123057000,"name":"서울특별시 동대문구 전농제2동","lon":127.05386388888888,"lat":37.58170277777778},
    {"id":1123060000,"name":"서울특별시 동대문구 답십리제1동","lon":127.05422222222222,"lat":37.569275000000005},
    {"id":1123061000,"name":"서울특별시 동대문구 답십리제2동","lon":127.06157499999999,"lat":37.56915277777778},
    {"id":1123065000,"name":"서울특별시 동대문구 장안제1동","lon":127.06847777777777,"lat":37.56498611111111},
    {"id":1123066000,"name":"서울특별시 동대문구 장안제2동","lon":127.07530833333333,"lat":37.56840833333334},
    {"id":1123070500,"name":"서울특별시 동대문구 청량리동","lon":127.0472767,"lat":37.5862586},
    {"id":1123071000,"name":"서울특별시 동대문구 회기동","lon":127.05748888888888,"lat":37.588008333333335},
    {"id":1123072000,"name":"서울특별시 동대문구 휘경제1동","lon":127.06781944444444,"lat":37.590158333333335},
    {"id":1123073000,"name":"서울특별시 동대문구 휘경제2동","lon":127.06965555555556,"lat":37.58849444444445},
    {"id":1123074000,"name":"서울특별시 동대문구 이문제1동","lon":127.06763055555555,"lat":37.595},
    {"id":1123075000,"name":"서울특별시 동대문구 이문제2동","lon":127.05861944444445,"lat":37.59173055555556},
    {"id":1126052000,"name":"서울특별시 중랑구 면목제2동","lon":127.08113333333333,"lat":37.586983333333336},
    {"id":1126054000,"name":"서울특별시 중랑구 면목제4동","lon":127.08762222222222,"lat":37.57181666666667},
    {"id":1126055000,"name":"서울특별시 중랑구 면목제5동","lon":127.08172222222221,"lat":37.58304722222223},
    {"id":1126056500,"name":"서울특별시 중랑구 면목본동","lon":127.08967777777778,"lat":37.584561111111114},
    {"id":1126057000,"name":"서울특별시 중랑구 면목제7동","lon":127.0890861111111,"lat":37.5762},
    {"id":1126057500,"name":"서울특별시 중랑구 면목제3.8동","lon":127.09021944444444,"lat":37.58023611111111},
    {"id":1126058000,"name":"서울특별시 중랑구 상봉제1동","lon":127.08928888888889,"lat":37.59702777777778},
    {"id":1126059000,"name":"서울특별시 중랑구 상봉제2동","lon":127.08538888888889,"lat":37.58961111111111},
    {"id":1126060000,"name":"서울특별시 중랑구 중화제1동","lon":127.08277777777778,"lat":37.59838611111111},
    {"id":1126061000,"name":"서울특별시 중랑구 중화제2동","lon":127.07702222222221,"lat":37.592216666666666},
    {"id":1126062000,"name":"서울특별시 중랑구 묵제1동","lon":127.0805861111111,"lat":37.60962222222222},
    {"id":1126063000,"name":"서울특별시 중랑구 묵제2동","lon":127.07814444444445,"lat":37.60679722222223},
    {"id":1126065500,"name":"서울특별시 중랑구 망우본동","lon":127.10846388888888,"lat":37.59869166666667},
    {"id":1126066000,"name":"서울특별시 중랑구 망우제3동","lon":127.10026666666666,"lat":37.58957777777778},
    {"id":1126068000,"name":"서울특별시 중랑구 신내1동","lon":127.10155277777777,"lat":37.60308333333334},
    {"id":1126069000,"name":"서울특별시 중랑구 신내2동","lon":127.09627499999999,"lat":37.603430555555555},
    {"id":1129052500,"name":"서울특별시 성북구 성북동","lon":127.00608611111112,"lat":37.58744166666667},
    {"id":1129055500,"name":"서울특별시 성북구 삼선동","lon":127.00955555555555,"lat":37.58284722222223},
    {"id":1129057500,"name":"서울특별시 성북구 동선동","lon":127.02250833333333,"lat":37.59127777777778},
    {"id":1129058000,"name":"서울특별시 성북구 돈암제1동","lon":127.0282888888889,"lat":37.60050833333334},
    {"id":1129059000,"name":"서울특별시 성북구 돈암제2동","lon":127.01271111111112,"lat":37.59525555555556},
    {"id":1129060000,"name":"서울특별시 성북구 안암동","lon":127.02347777777777,"lat":37.583058333333334},
    {"id":1129061000,"name":"서울특별시 성북구 보문동","lon":127.0249,"lat":37.57758888888889},
    {"id":1129062000,"name":"서울특별시 성북구 정릉제1동","lon":127.01874166666667,"lat":37.598641666666666},
    {"id":1129063000,"name":"서울특별시 성북구 정릉제2동","lon":127.01324166666667,"lat":37.60166666666667},
    {"id":1129064000,"name":"서울특별시 성북구 정릉제3동","lon":127.00628888888889,"lat":37.60616666666667},
    {"id":1129065000,"name":"서울특별시 성북구 정릉제4동","lon":127.00820833333333,"lat":37.61078611111111},
    {"id":1129066000,"name":"서울특별시 성북구 길음제1동","lon":127.02416666666666,"lat":37.60178333333334},
    {"id":1129068500,"name":"서울특별시 성북구 길음제2동","lon":127.0294,"lat":37.60385},
    {"id":1129070500,"name":"서울특별시 성북구 종암동","lon":127.03355277777777,"lat":37.59733055555556},
    {"id":1129071500,"name":"서울특별시 성북구 월곡제1동","lon":127.03614166666667,"lat":37.60420277777778},
    {"id":1129072500,"name":"서울특별시 성북구 월곡제2동","lon":127.04168888888888,"lat":37.599941666666666},
    {"id":1129076000,"name":"서울특별시 성북구 장위제1동","lon":127.04585555555555,"lat":37.61119166666667},
    {"id":1129077000,"name":"서울특별시 성북구 장위제2동","lon":127.05670833333333,"lat":37.60966388888889},
    {"id":1129078000,"name":"서울특별시 성북구 장위제3동","lon":127.05872222222222,"lat":37.613772222222224},
    {"id":1129081000,"name":"서울특별시 성북구 석관동","lon":127.06351944444444,"lat":37.61016111111111},
    {"id":1130553400,"name":"서울특별시 강북구 삼양동","lon":127.0205111111111,"lat":37.62448333333333},
    {"id":1130553500,"name":"서울특별시 강북구 미아동","lon":127.02901944444444,"lat":37.62413611111111},
    {"id":1130554500,"name":"서울특별시 강북구 송중동","lon":127.03583333333333,"lat":37.61336111111111},
    {"id":1130555500,"name":"서울특별시 강북구 송천동","lon":127.02595555555556,"lat":37.61551666666667},
    {"id":1130557500,"name":"서울특별시 강북구 삼각산동","lon":127.01985277777777,"lat":37.61443055555556},
    {"id":1130559500,"name":"서울특별시 강북구 번1동","lon":127.03101944444444,"lat":37.63515833333333},
    {"id":1130560300,"name":"서울특별시 강북구 번2동","lon":127.04094444444445,"lat":37.62938611111111},
    {"id":1130560800,"name":"서울특별시 강북구 번3동","lon":127.04868888888889,"lat":37.62309444444445},
    {"id":1130561500,"name":"서울특별시 강북구 수유1동","lon":127.01929722222222,"lat":37.63073333333333},
    {"id":1130562500,"name":"서울특별시 강북구 수유2동","lon":127.02204166666667,"lat":37.64188055555555},
    {"id":1130563500,"name":"서울특별시 강북구 수유3동","lon":127.02531944444445,"lat":37.63597222222222},
    {"id":1130564500,"name":"서울특별시 강북구 우이동","lon":127.01406666666666,"lat":37.64519444444444},
    {"id":1130566000,"name":"서울특별시 강북구 인수동","lon":127.01276666666666,"lat":37.638733333333334},
    {"id":1132051100,"name":"서울특별시 도봉구 창제1동","lon":127.04599722222223,"lat":37.64564722222222},
    {"id":1132051200,"name":"서울특별시 도봉구 창제2동","lon":127.03776666666667,"lat":37.638727777777774},
    {"id":1132051300,"name":"서울특별시 도봉구 창제3동","lon":127.04500833333333,"lat":37.63526944444445},
    {"id":1132051400,"name":"서울특별시 도봉구 창제4동","lon":127.05366666666666,"lat":37.64939722222222},
    {"id":1132051500,"name":"서울특별시 도봉구 창제5동","lon":127.04129722222223,"lat":37.64921388888889},
    {"id":1132052100,"name":"서울특별시 도봉구 도봉제1동","lon":127.04551111111111,"lat":37.67581944444444},
    {"id":1132052200,"name":"서울특별시 도봉구 도봉제2동","lon":127.04870833333334,"lat":37.666999999999994},
    {"id":1132066000,"name":"서울특별시 도봉구 쌍문제1동","lon":127.02817777777777,"lat":37.645247222222224},
    {"id":1132067000,"name":"서울특별시 도봉구 쌍문제2동","lon":127.04091111111111,"lat":37.65508055555556},
    {"id":1132068000,"name":"서울특별시 도봉구 쌍문제3동","lon":127.03008888888888,"lat":37.64619444444445},
    {"id":1132068100,"name":"서울특별시 도봉구 쌍문제4동","lon":127.03054444444444,"lat":37.653625},
    {"id":1132069000,"name":"서울특별시 도봉구 방학제1동","lon":127.04276666666667,"lat":37.661433333333335},
    {"id":1132070000,"name":"서울특별시 도봉구 방학제2동","lon":127.03722222222223,"lat":37.66543611111111},
    {"id":1132071000,"name":"서울특별시 도봉구 방학제3동","lon":127.03007777777778,"lat":37.65622777777778},
    {"id":1135056000,"name":"서울특별시 노원구 월계1동","lon":127.06508888888888,"lat":37.61731944444445},
    {"id":1135057000,"name":"서울특별시 노원구 월계2동","lon":127.05299722222222,"lat":37.62976111111111},
    {"id":1135058000,"name":"서울특별시 노원구 월계3동","lon":127.07133055555555,"lat":37.618205555555555},
    {"id":1135059500,"name":"서울특별시 노원구 공릉1동","lon":127.0737518,"lat":37.62472748},
    {"id":1135060000,"name":"서울특별시 노원구 공릉2동","lon":127.08544166666667,"lat":37.61856944444445},
    {"id":1135061100,"name":"서울특별시 노원구 하계1동","lon":127.07473055555555,"lat":37.63778333333333},
    {"id":1135061200,"name":"서울특별시 노원구 하계2동","lon":127.0701111111111,"lat":37.62925},
    {"id":1135061900,"name":"서울특별시 노원구 중계본동","lon":127.08245555555555,"lat":37.64507222222222},
    {"id":1135062100,"name":"서울특별시 노원구 중계1동","lon":127.07966388888889,"lat":37.64978611111111},
    {"id":1135062400,"name":"서울특별시 노원구 중계4동","lon":127.08008888888888,"lat":37.655966666666664},
    {"id":1135062500,"name":"서울특별시 노원구 중계2.3동","lon":127.0687126,"lat":37.6421829},
    {"id":1135063000,"name":"서울특별시 노원구 상계1동","lon":127.0572111111111,"lat":37.677102777777776},
    {"id":1135064000,"name":"서울특별시 노원구 상계2동","lon":127.07070833333333,"lat":37.655975},
    {"id":1135066500,"name":"서울특별시 노원구 상계3.4동","lon":127.07746666666667,"lat":37.661},
    {"id":1135067000,"name":"서울특별시 노원구 상계5동","lon":127.07148611111111,"lat":37.660219444444444},
    {"id":1135069500,"name":"서울특별시 노원구 상계6.7동","lon":127.06906666666666,"lat":37.65208888888889},
    {"id":1135070000,"name":"서울특별시 노원구 상계8동","lon":127.05366666666666,"lat":37.663944444444446},
    {"id":1135071000,"name":"서울특별시 노원구 상계9동","lon":127.06595555555555,"lat":37.66171111111111},
    {"id":1135072000,"name":"서울특별시 노원구 상계10동","lon":127.06236666666666,"lat":37.658433333333335},
    {"id":1138051000,"name":"서울특별시 은평구 녹번동","lon":126.93684444444445,"lat":37.599961111111114},
    {"id":1138052000,"name":"서울특별시 은평구 불광제1동","lon":126.9341888888889,"lat":37.60753611111111},
    {"id":1138053000,"name":"서울특별시 은평구 불광제2동","lon":126.92981944444445,"lat":37.61879444444445},
    {"id":1138055100,"name":"서울특별시 은평구 갈현제1동","lon":126.9187888888889,"lat":37.620897222222226},
    {"id":1138055200,"name":"서울특별시 은평구 갈현제2동","lon":126.9178888888889,"lat":37.615766666666666},
    {"id":1138056000,"name":"서울특별시 은평구 구산동","lon":126.91250000000001,"lat":37.60901944444445},
    {"id":1138057000,"name":"서울특별시 은평구 대조동","lon":126.92288888888889,"lat":37.61133888888889},
    {"id":1138058000,"name":"서울특별시 은평구 응암제1동","lon":126.9288638888889,"lat":37.59791111111112},
    {"id":1138059000,"name":"서울특별시 은평구 응암제2동","lon":126.92513055555555,"lat":37.591816666666666},
    {"id":1138060000,"name":"서울특별시 은평구 응암제3동","lon":126.91784166666667,"lat":37.58938611111111},
    {"id":1138062500,"name":"서울특별시 은평구 역촌동","lon":126.91727777777778,"lat":37.601619444444445},
    {"id":1138063100,"name":"서울특별시 은평구 신사제1동","lon":126.91438611111111,"lat":37.595219444444446},
    {"id":1138063200,"name":"서울특별시 은평구 신사제2동","lon":126.91483333333333,"lat":37.589333333333336},
    {"id":1138064000,"name":"서울특별시 은평구 증산동","lon":126.90922222222223,"lat":37.58153055555556},
    {"id":1138065000,"name":"서울특별시 은평구 수색동","lon":126.89964166666667,"lat":37.581358333333334},
    {"id":1138069000,"name":"서울특별시 은평구 진관동","lon":126.92111111111112,"lat":37.6356},
    {"id":1141052000,"name":"서울특별시 서대문구 천연동","lon":126.961175,"lat":37.56830277777778},
    {"id":1141055500,"name":"서울특별시 서대문구 북아현동","lon":126.95891111111112,"lat":37.556869444444445},
    {"id":1141056500,"name":"서울특별시 서대문구 충현동","lon":126.95684444444444,"lat":37.562061111111106},
    {"id":1141058500,"name":"서울특별시 서대문구 신촌동","lon":126.94558611111111,"lat":37.55673888888889},
    {"id":1141061500,"name":"서울특별시 서대문구 연희동","lon":126.93735277777778,"lat":37.57112222222223},
    {"id":1141062000,"name":"서울특별시 서대문구 홍제제1동","lon":126.94698611111112,"lat":37.584900000000005},
    {"id":1141064000,"name":"서울특별시 서대문구 홍제제3동","lon":126.95116666666667,"lat":37.592444444444446},
    {"id":1141065500,"name":"서울특별시 서대문구 홍제제2동","lon":126.95146666666668,"lat":37.58333888888889},
    {"id":1141066000,"name":"서울특별시 서대문구 홍은제1동","lon":126.94595555555556,"lat":37.59043055555556},
    {"id":1141068500,"name":"서울특별시 서대문구 홍은제2동","lon":126.93848611111112,"lat":37.58015833333334},
    {"id":1141069000,"name":"서울특별시 서대문구 남가좌제1동","lon":126.91557777777778,"lat":37.57119444444445},
    {"id":1141070000,"name":"서울특별시 서대문구 남가좌제2동","lon":126.92591111111112,"lat":37.57562777777778},
    {"id":1141071000,"name":"서울특별시 서대문구 북가좌제1동","lon":126.90897777777778,"lat":37.576711111111116},
    {"id":1141072000,"name":"서울특별시 서대문구 북가좌제2동","lon":126.91321944444445,"lat":37.57860277777778},
    {"id":1144055500,"name":"서울특별시 마포구 아현동","lon":126.95422222222223,"lat":37.54434444444444},
    {"id":1144056500,"name":"서울특별시 마포구 공덕동","lon":126.96208888888889,"lat":37.547441666666664},
    {"id":1144058500,"name":"서울특별시 마포구 도화동","lon":126.95213055555556,"lat":37.5349},
    {"id":1144059000,"name":"서울특별시 마포구 용강동","lon":126.94373333333334,"lat":37.53924722222222},
    {"id":1144060000,"name":"서울특별시 마포구 대흥동","lon":126.94481111111112,"lat":37.55305},
    {"id":1144061000,"name":"서울특별시 마포구 염리동","lon":126.94771944444445,"lat":37.54438611111111},
    {"id":1144063000,"name":"서울특별시 마포구 신수동","lon":126.93664166666667,"lat":37.544066666666666},
    {"id":1144065500,"name":"서울특별시 마포구 서강동","lon":126.93415555555556,"lat":37.54444722222222},
    {"id":1144066000,"name":"서울특별시 마포구 서교동","lon":126.92297500000001,"lat":37.54965555555555},
    {"id":1144068000,"name":"서울특별시 마포구 합정동","lon":126.90775277777779,"lat":37.54672222222222},
    {"id":1144069000,"name":"서울특별시 마포구 망원제1동","lon":126.90776666666667,"lat":37.55243333333333},
    {"id":1144070000,"name":"서울특별시 마포구 망원제2동","lon":126.90431111111111,"lat":37.557563888888886},
    {"id":1144071000,"name":"서울특별시 마포구 연남동","lon":126.92406666666668,"lat":37.56169444444444},
    {"id":1144072000,"name":"서울특별시 마포구 성산제1동","lon":126.91002222222222,"lat":37.560583333333334},
    {"id":1144073000,"name":"서울특별시 마포구 성산제2동","lon":126.91115277777779,"lat":37.56593055555555},
    {"id":1144074000,"name":"서울특별시 마포구 상암동","lon":126.89681111111112,"lat":37.57551388888889},
    {"id":1147051000,"name":"서울특별시 양천구 목1동","lon":126.87323333333333,"lat":37.52753888888889},
    {"id":1147052000,"name":"서울특별시 양천구 목2동","lon":126.87380833333333,"lat":37.54335277777778},
    {"id":1147053000,"name":"서울특별시 양천구 목3동","lon":126.86659999999999,"lat":37.54209722222222},
    {"id":1147054000,"name":"서울특별시 양천구 목4동","lon":126.87049722222221,"lat":37.52953333333333},
    {"id":1147055000,"name":"서울특별시 양천구 목5동","lon":126.88075277777777,"lat":37.53241666666666},
    {"id":1147056000,"name":"서울특별시 양천구 신월1동","lon":126.83359999999999,"lat":37.530005555555555},
    {"id":1147057000,"name":"서울특별시 양천구 신월2동","lon":126.84658611111111,"lat":37.522172222222224},
    {"id":1147058000,"name":"서울특별시 양천구 신월3동","lon":126.831175,"lat":37.53084722222222},
    {"id":1147059000,"name":"서울특별시 양천구 신월4동","lon":126.84215555555555,"lat":37.521905555555556},
    {"id":1147060000,"name":"서울특별시 양천구 신월5동","lon":126.82944444444443,"lat":37.53688888888889},
    {"id":1147061000,"name":"서울특별시 양천구 신월6동","lon":126.84576666666666,"lat":37.51330277777778},
    {"id":1147061100,"name":"서울특별시 양천구 신월7동","lon":126.83676388888888,"lat":37.51909166666667},
    {"id":1147062000,"name":"서울특별시 양천구 신정1동","lon":126.85639722222221,"lat":37.51573055555556},
    {"id":1147063000,"name":"서울특별시 양천구 신정2동","lon":126.87269722222221,"lat":37.51640833333333},
    {"id":1147064000,"name":"서울특별시 양천구 신정3동","lon":126.85688611111111,"lat":37.51233611111111},
    {"id":1147065000,"name":"서울특별시 양천구 신정4동","lon":126.8608,"lat":37.52063611111111},
    {"id":1147067000,"name":"서울특별시 양천구 신정6동","lon":126.8664861111111,"lat":37.514247222222224},
    {"id":1147068000,"name":"서울특별시 양천구 신정7동","lon":126.86175555555555,"lat":37.5116},
    {"id":1150051000,"name":"서울특별시 강서구 염창동","lon":126.87304444444443,"lat":37.55104444444444},
    {"id":1150052000,"name":"서울특별시 강서구 등촌제1동","lon":126.86099722222221,"lat":37.553066666666666},
    {"id":1150053000,"name":"서울특별시 강서구 등촌제2동","lon":126.86459722222222,"lat":37.539852777777774},
    {"id":1150053500,"name":"서울특별시 강서구 등촌제3동","lon":126.85000833333332,"lat":37.55609444444444},
    {"id":1150054000,"name":"서울특별시 강서구 화곡제1동","lon":126.84374166666666,"lat":37.527744444444444},
    {"id":1150055000,"name":"서울특별시 강서구 화곡제2동","lon":126.85674444444444,"lat":37.52878888888889},
    {"id":1150056000,"name":"서울특별시 강서구 화곡제3동","lon":126.84046388888889,"lat":37.539941666666664},
    {"id":1150057000,"name":"서울특별시 강서구 화곡제4동","lon":126.86523333333332,"lat":37.53013333333333},
    {"id":1150059000,"name":"서울특별시 강서구 화곡본동","lon":126.84975277777777,"lat":37.541244444444445},
    {"id":1150059100,"name":"서울특별시 강서구 화곡제6동","lon":126.85224444444444,"lat":37.54899444444444},
    {"id":1150059300,"name":"서울특별시 강서구 화곡제8동","lon":126.85042222222222,"lat":37.529891666666664},
    {"id":1150060300,"name":"서울특별시 강서구 가양제1동","lon":126.84266388888888,"lat":37.56647777777778},
    {"id":1150060400,"name":"서울특별시 강서구 가양제2동","lon":126.85336388888888,"lat":37.56460555555555},
    {"id":1150060500,"name":"서울특별시 강서구 가양제3동","lon":126.8626861111111,"lat":37.558274999999995},
    {"id":1150061100,"name":"서울특별시 강서구 발산제1동","lon":126.83524444444444,"lat":37.55026944444444},
    {"id":1150061500,"name":"서울특별시 강서구 우장산동","lon":126.8418849,"lat":37.5482468},
    {"id":1150062000,"name":"서울특별시 강서구 공항동","lon":126.81216388888889,"lat":37.556105555555554},
    {"id":1150063000,"name":"서울특별시 강서구 방화제1동","lon":126.81431111111111,"lat":37.56877222222222},
    {"id":1150064000,"name":"서울특별시 강서구 방화제2동","lon":126.80883055555556,"lat":37.563874999999996},
    {"id":1150064100,"name":"서울특별시 강서구 방화제3동","lon":126.81601944444444,"lat":37.57594166666667},
    {"id":1153051000,"name":"서울특별시 구로구 신도림동","lon":126.88265277777776,"lat":37.504977777777775},
    {"id":1153052000,"name":"서울특별시 구로구 구로제1동","lon":126.87785555555556,"lat":37.49020277777778},
    {"id":1153053000,"name":"서울특별시 구로구 구로제2동","lon":126.88566666666668,"lat":37.48860277777778},
    {"id":1153054000,"name":"서울특별시 구로구 구로제3동","lon":126.89568611111112,"lat":37.48305555555556},
    {"id":1153055000,"name":"서울특별시 구로구 구로제4동","lon":126.89122222222223,"lat":37.48883055555556},
    {"id":1153056000,"name":"서울특별시 구로구 구로제5동","lon":126.89137777777779,"lat":37.49727777777778},
    {"id":1153059500,"name":"서울특별시 구로구 가리봉동","lon":126.89198611111112,"lat":37.477980555555554},
    {"id":1153072000,"name":"서울특별시 구로구 고척제1동","lon":126.86479999999999,"lat":37.49760833333333},
    {"id":1153073000,"name":"서울특별시 구로구 고척제2동","lon":126.86043055555555,"lat":37.50377777777778},
    {"id":1153074000,"name":"서울특별시 구로구 개봉제1동","lon":126.84926388888888,"lat":37.499386111111114},
    {"id":1153075000,"name":"서울특별시 구로구 개봉제2동","lon":126.85861944444444,"lat":37.488025},
    {"id":1153076000,"name":"서울특별시 구로구 개봉제3동","lon":126.85588888888888,"lat":37.48317222222222},
    {"id":1153077000,"name":"서울특별시 구로구 오류제1동","lon":126.84708888888889,"lat":37.49424722222222},
    {"id":1153078000,"name":"서울특별시 구로구 오류제2동","lon":126.84160833333333,"lat":37.48599166666667},
    {"id":1153079000,"name":"서울특별시 구로구 수궁동","lon":126.83356666666666,"lat":37.491105555555556},
    {"id":1153080000,"name":"서울특별시 구로구 항동","lon":126.8107155,"lat":37.482174},
    {"id":1154551000,"name":"서울특별시 금천구 가산동","lon":126.89380833333334,"lat":37.474125},
    {"id":1154561000,"name":"서울특별시 금천구 독산제1동","lon":126.8991,"lat":37.46745833333333},
    {"id":1154562000,"name":"서울특별시 금천구 독산제2동","lon":126.90184444444445,"lat":37.46329444444445},
    {"id":1154563000,"name":"서울특별시 금천구 독산제3동","lon":126.90998888888889,"lat":37.47378888888889},
    {"id":1154564000,"name":"서울특별시 금천구 독산제4동","lon":126.90422222222223,"lat":37.46465555555556},
    {"id":1154567000,"name":"서울특별시 금천구 시흥제1동","lon":126.89941944444445,"lat":37.45214722222222},
    {"id":1154568000,"name":"서울특별시 금천구 시흥제2동","lon":126.91883055555556,"lat":37.447291666666665},
    {"id":1154569000,"name":"서울특별시 금천구 시흥제3동","lon":126.90797500000001,"lat":37.43751944444444},
    {"id":1154570000,"name":"서울특별시 금천구 시흥제4동","lon":126.90824166666667,"lat":37.456175},
    {"id":1154571000,"name":"서울특별시 금천구 시흥제5동","lon":126.91040833333334,"lat":37.44958611111111},
    {"id":1156051500,"name":"서울특별시 영등포구 영등포본동","lon":126.9093046,"lat":37.5146826},
    {"id":1156053500,"name":"서울특별시 영등포구 영등포동","lon":126.910691,"lat":37.5203985},
    {"id":1156054000,"name":"서울특별시 영등포구 여의동","lon":126.93675555555556,"lat":37.51488888888889},
    {"id":1156055000,"name":"서울특별시 영등포구 당산제1동","lon":126.89952222222223,"lat":37.52215833333333},
    {"id":1156056000,"name":"서울특별시 영등포구 당산제2동","lon":126.90424444444444,"lat":37.53193888888889},
    {"id":1156058500,"name":"서울특별시 영등포구 도림동","lon":126.89595,"lat":37.509475},
    {"id":1156060500,"name":"서울특별시 영등포구 문래동","lon":126.8995421,"lat":37.5170965},
    {"id":1156061000,"name":"서울특별시 영등포구 양평제1동","lon":126.89028611111112,"lat":37.52084722222222},
    {"id":1156062000,"name":"서울특별시 영등포구 양평제2동","lon":126.89802222222222,"lat":37.535},
    {"id":1156063000,"name":"서울특별시 영등포구 신길제1동","lon":126.92347777777778,"lat":37.50817222222222},
    {"id":1156065000,"name":"서울특별시 영등포구 신길제3동","lon":126.90991944444445,"lat":37.504622222222224},
    {"id":1156066000,"name":"서울특별시 영등포구 신길제4동","lon":126.913375,"lat":37.50567222222222},
    {"id":1156067000,"name":"서울특별시 영등포구 신길제5동","lon":126.90734444444445,"lat":37.49882222222222},
    {"id":1156068000,"name":"서울특별시 영등포구 신길제6동","lon":126.91194444444444,"lat":37.49656388888889},
    {"id":1156069000,"name":"서울특별시 영등포구 신길제7동","lon":126.92347777777778,"lat":37.503655555555554},
    {"id":1156070000,"name":"서울특별시 영등포구 대림제1동","lon":126.9079638888889,"lat":37.49258888888889},
    {"id":1156071000,"name":"서울특별시 영등포구 대림제2동","lon":126.90035555555556,"lat":37.489925},
    {"id":1156072000,"name":"서울특별시 영등포구 대림제3동","lon":126.90021111111112,"lat":37.49548611111111},
    {"id":1159051000,"name":"서울특별시 동작구 노량진제1동","lon":126.94408611111112,"lat":37.509480555555555},
    {"id":1159052000,"name":"서울특별시 동작구 노량진제2동","lon":126.93938611111112,"lat":37.50573333333333},
    {"id":1159053000,"name":"서울특별시 동작구 상도제1동","lon":126.95302222222223,"lat":37.50405},
    {"id":1159054000,"name":"서울특별시 동작구 상도제2동","lon":126.9444,"lat":37.50264166666667},
    {"id":1159055000,"name":"서울특별시 동작구 상도제3동","lon":126.9333888888889,"lat":37.49636666666667},
    {"id":1159056000,"name":"서울특별시 동작구 상도제4동","lon":126.939875,"lat":37.49777777777778},
    {"id":1159060500,"name":"서울특별시 동작구 흑석동","lon":126.96261111111112,"lat":37.50673888888889},
    {"id":1159062000,"name":"서울특별시 동작구 사당제1동","lon":126.97573333333334,"lat":37.47361111111111},
    {"id":1159063000,"name":"서울특별시 동작구 사당제2동","lon":126.97950833333334,"lat":37.485619444444445},
    {"id":1159064000,"name":"서울특별시 동작구 사당제3동","lon":126.97408611111112,"lat":37.483825},
    {"id":1159065000,"name":"서울특별시 동작구 사당제4동","lon":126.97372222222222,"lat":37.478186111111114},
    {"id":1159065100,"name":"서울특별시 동작구 사당제5동","lon":126.96910833333334,"lat":37.482797222222224},
    {"id":1159066000,"name":"서울특별시 동작구 대방동","lon":126.92844444444445,"lat":37.50533055555555},
    {"id":1159067000,"name":"서울특별시 동작구 신대방제1동","lon":126.91210833333334,"lat":37.48615},
    {"id":1159068000,"name":"서울특별시 동작구 신대방제2동","lon":126.927975,"lat":37.496122222222226},
    {"id":1162052500,"name":"서울특별시 관악구 보라매동","lon":126.93488611111111,"lat":37.485305555555556},
    {"id":1162054500,"name":"서울특별시 관악구 청림동","lon":126.96066666666667,"lat":37.48903888888889},
    {"id":1162056500,"name":"서울특별시 관악구 성현동","lon":126.9481357,"lat":37.4896244},
    {"id":1162057500,"name":"서울특별시 관악구 행운동","lon":126.95903333333334,"lat":37.47788333333334},
    {"id":1162058500,"name":"서울특별시 관악구 낙성대동","lon":126.96048888888889,"lat":37.4735},
    {"id":1162059500,"name":"서울특별시 관악구 청룡동","lon":126.94155,"lat":37.479151},
    {"id":1162060500,"name":"서울특별시 관악구 은천동","lon":126.9424278,"lat":37.4853086},
    {"id":1162061500,"name":"서울특별시 관악구 중앙동","lon":126.95175555555556,"lat":37.48144166666667},
    {"id":1162062500,"name":"서울특별시 관악구 인헌동","lon":126.967375,"lat":37.47230555555556},
    {"id":1162063000,"name":"서울특별시 관악구 남현동","lon":126.97995555555556,"lat":37.47178888888889},
    {"id":1162064500,"name":"서울특별시 관악구 서원동","lon":126.9313,"lat":37.4797346},
    {"id":1162065500,"name":"서울특별시 관악구 신원동","lon":126.92941944444445,"lat":37.47877777777778},
    {"id":1162066500,"name":"서울특별시 관악구 서림동","lon":126.93705555555556,"lat":37.47216388888889},
    {"id":1162068500,"name":"서울특별시 관악구 신사동","lon":126.9180796,"lat":37.4854118},
    {"id":1162069500,"name":"서울특별시 관악구 신림동","lon":126.927075,"lat":37.487426},
    {"id":1162071500,"name":"서울특별시 관악구 난향동","lon":126.918842,"lat":37.461429},
    {"id":1162072500,"name":"서울특별시 관악구 조원동","lon":126.9078649,"lat":37.4826299},
    {"id":1162073500,"name":"서울특별시 관악구 대학동","lon":126.9369907,"lat":37.4706145},
    {"id":1162074500,"name":"서울특별시 관악구 삼성동","lon":126.932963,"lat":37.470101},
    {"id":1162076500,"name":"서울특별시 관악구 미성동","lon":126.9155534,"lat":37.4761761},
    {"id":1162077500,"name":"서울특별시 관악구 난곡동","lon":126.9216507,"lat":37.4709634},
    {"id":1165051000,"name":"서울특별시 서초구 서초1동","lon":127.02111111111111,"lat":37.486000000000004},
    {"id":1165052000,"name":"서울특별시 서초구 서초2동","lon":127.0269111111111,"lat":37.48925},
    {"id":1165053000,"name":"서울특별시 서초구 서초3동","lon":127.01456666666667,"lat":37.480783333333335},
    {"id":1165053100,"name":"서울특별시 서초구 서초4동","lon":127.02422222222222,"lat":37.499855555555555},
    {"id":1165054000,"name":"서울특별시 서초구 잠원동","lon":127.01605277777777,"lat":37.51208888888889},
    {"id":1165055000,"name":"서울특별시 서초구 반포본동","lon":126.98813333333334,"lat":37.49765},
    {"id":1165056000,"name":"서울특별시 서초구 반포1동","lon":127.01446666666666,"lat":37.50331944444444},
    {"id":1165057000,"name":"서울특별시 서초구 반포2동","lon":126.996575,"lat":37.501783333333336},
    {"id":1165058000,"name":"서울특별시 서초구 반포3동","lon":127.00775277777778,"lat":37.50917222222222},
    {"id":1165058100,"name":"서울특별시 서초구 반포4동","lon":127.00244166666667,"lat":37.49475833333334},
    {"id":1165059000,"name":"서울특별시 서초구 방배본동","lon":126.99083333333333,"lat":37.49144444444445},
    {"id":1165060000,"name":"서울특별시 서초구 방배1동","lon":126.99660833333333,"lat":37.480558333333335},
    {"id":1165061000,"name":"서울특별시 서초구 방배2동","lon":126.98761111111111,"lat":37.47696666666667},
    {"id":1165062000,"name":"서울특별시 서초구 방배3동","lon":127.00113333333333,"lat":37.477538888888894},
    {"id":1165062100,"name":"서울특별시 서초구 방배4동","lon":126.99332222222222,"lat":37.48681666666667},
    {"id":1165065100,"name":"서울특별시 서초구 양재1동","lon":127.03815277777778,"lat":37.481636111111115},
    {"id":1165065200,"name":"서울특별시 서초구 양재2동","lon":127.04314444444444,"lat":37.46778055555556},
    {"id":1165066000,"name":"서울특별시 서초구 내곡동","lon":127.0534111111111,"lat":37.45914444444445},
    {"id":1168051000,"name":"서울특별시 강남구 신사동","lon":127.02502222222222,"lat":37.52133888888889},
    {"id":1168052100,"name":"서울특별시 강남구 논현1동","lon":127.03051111111111,"lat":37.50878888888889},
    {"id":1168053100,"name":"서울특별시 강남구 논현2동","lon":127.03928888888889,"lat":37.51443611111111},
    {"id":1168054500,"name":"서울특별시 강남구 압구정동","lon":127.030713,"lat":37.530642},
    {"id":1168056500,"name":"서울특별시 강남구 청담동","lon":127.0493,"lat":37.5251083},
    {"id":1168058000,"name":"서울특별시 강남구 삼성1동","lon":127.05753055555556,"lat":37.50904166666667},
    {"id":1168059000,"name":"서울특별시 강남구 삼성2동","lon":127.0480861111111,"lat":37.50838888888889},
    {"id":1168060000,"name":"서울특별시 강남구 대치1동","lon":127.06385555555555,"lat":37.49050555555556},
    {"id":1168061000,"name":"서울특별시 강남구 대치2동","lon":127.06901944444444,"lat":37.49711111111111},
    {"id":1168063000,"name":"서울특별시 강남구 대치4동","lon":127.05985277777778,"lat":37.49696388888889},
    {"id":1168064000,"name":"서울특별시 강남구 역삼1동","lon":127.03514444444444,"lat":37.492583333333336},
    {"id":1168065000,"name":"서울특별시 강남구 역삼2동","lon":127.04885555555555,"lat":37.49324722222222},
    {"id":1168065500,"name":"서울특별시 강남구 도곡1동","lon":127.04049722222221,"lat":37.48806666666667},
    {"id":1168065600,"name":"서울특별시 강남구 도곡2동","lon":127.0454,"lat":37.47986388888889},
    {"id":1168066000,"name":"서울특별시 강남구 개포1동","lon":127.05955555555555,"lat":37.47909722222222},
    {"id":1168067000,"name":"서울특별시 강남구 개포2동","lon":127.07574166666666,"lat":37.485175},
    {"id":1168069000,"name":"서울특별시 강남구 개포4동","lon":127.05373333333333,"lat":37.47602777777778},
    {"id":1168070000,"name":"서울특별시 강남구 세곡동","lon":127.10936388888888,"lat":37.46636666666667},
    {"id":1168072000,"name":"서울특별시 강남구 일원본동","lon":127.0886,"lat":37.480533333333334},
    {"id":1168073000,"name":"서울특별시 강남구 일원1동","lon":127.09013055555555,"lat":37.48905833333333},
    {"id":1168074000,"name":"서울특별시 강남구 일원2동","lon":127.07568611111111,"lat":37.48934444444445},
    {"id":1168075000,"name":"서울특별시 강남구 수서동","lon":127.107,"lat":37.48602777777778},
    {"id":1171051000,"name":"서울특별시 송파구 풍납1동","lon":127.12424444444444,"lat":37.53524722222222},
    {"id":1171052000,"name":"서울특별시 송파구 풍납2동","lon":127.11886388888888,"lat":37.52595},
    {"id":1171053100,"name":"서울특별시 송파구 거여1동","lon":127.14540833333334,"lat":37.49410833333334},
    {"id":1171053200,"name":"서울특별시 송파구 거여2동","lon":127.149,"lat":37.49068611111111},
    {"id":1171054000,"name":"서울특별시 송파구 마천1동","lon":127.1520888888889,"lat":37.49322222222222},
    {"id":1171055000,"name":"서울특별시 송파구 마천2동","lon":127.15067777777779,"lat":37.494075},
    {"id":1171056100,"name":"서울특별시 송파구 방이1동","lon":127.12601111111111,"lat":37.50814722222222},
    {"id":1171056200,"name":"서울특별시 송파구 방이2동","lon":127.11653333333332,"lat":37.51175555555555},
    {"id":1171056600,"name":"서울특별시 송파구 오륜동","lon":127.13650000000001,"lat":37.51258888888889},
    {"id":1171057000,"name":"서울특별시 송파구 오금동","lon":127.13024444444444,"lat":37.50015},
    {"id":1171058000,"name":"서울특별시 송파구 송파1동","lon":127.11181944444444,"lat":37.50313055555556},
    {"id":1171059000,"name":"서울특별시 송파구 송파2동","lon":127.1189111111111,"lat":37.49943611111111},
    {"id":1171060000,"name":"서울특별시 송파구 석촌동","lon":127.10575277777777,"lat":37.500775},
    {"id":1171061000,"name":"서울특별시 송파구 삼전동","lon":127.09464166666666,"lat":37.49997777777778},
    {"id":1171062000,"name":"서울특별시 송파구 가락본동","lon":127.1239111111111,"lat":37.49277222222222},
    {"id":1171063100,"name":"서울특별시 송파구 가락1동","lon":127.10768611111111,"lat":37.49375},
    {"id":1171063200,"name":"서울특별시 송파구 가락2동","lon":127.12864166666667,"lat":37.495844444444444},
    {"id":1171064100,"name":"서울특별시 송파구 문정1동","lon":127.1262,"lat":37.48719166666667},
    {"id":1171064200,"name":"서울특별시 송파구 문정2동","lon":127.11306388888889,"lat":37.48705277777778},
    {"id":1171064600,"name":"서울특별시 송파구 장지동","lon":127.13453333333334,"lat":37.48413611111111},
    {"id":1171064700,"name":"서울특별시 송파구 위례동","lon":127.1414918,"lat":37.4791657},
    {"id":1171065000,"name":"서울특별시 송파구 잠실본동","lon":127.08641944444445,"lat":37.50335555555556},
    {"id":1171067000,"name":"서울특별시 송파구 잠실2동","lon":127.089975,"lat":37.51191388888889},
    {"id":1171068000,"name":"서울특별시 송파구 잠실3동","lon":127.09641111111111,"lat":37.504488888888886},
    {"id":1171069000,"name":"서울특별시 송파구 잠실4동","lon":127.11005555555555,"lat":37.516444444444446},
    {"id":1171071000,"name":"서울특별시 송파구 잠실6동","lon":127.10265277777778,"lat":37.51538333333333},
    {"id":1171072000,"name":"서울특별시 송파구 잠실7동","lon":127.07913333333333,"lat":37.50586111111111},
    {"id":1174051500,"name":"서울특별시 강동구 강일동","lon":127.1804,"lat":37.56671388888889},
    {"id":1174052000,"name":"서울특별시 강동구 상일동","lon":127.16762222222222,"lat":37.54881111111111},
    {"id":1174053000,"name":"서울특별시 강동구 명일제1동","lon":127.14802222222222,"lat":37.54696388888889},
    {"id":1174054000,"name":"서울특별시 강동구 명일제2동","lon":127.15344444444445,"lat":37.543552777777776},
    {"id":1174055000,"name":"서울특별시 강동구 고덕제1동","lon":127.15101944444444,"lat":37.55624444444444},
    {"id":1174056000,"name":"서울특별시 강동구 고덕제2동","lon":127.16648611111111,"lat":37.557713888888884},
    {"id":1174057000,"name":"서울특별시 강동구 암사제1동","lon":127.1347638888889,"lat":37.548716666666664},
    {"id":1174058000,"name":"서울특별시 강동구 암사제2동","lon":127.12935277777777,"lat":37.54896111111111},
    {"id":1174059000,"name":"서울특별시 강동구 암사제3동","lon":127.140375,"lat":37.55237222222222},
    {"id":1174060000,"name":"서울특별시 강동구 천호제1동","lon":127.13887777777778,"lat":37.54230277777778},
    {"id":1174061000,"name":"서울특별시 강동구 천호제2동","lon":127.12290833333333,"lat":37.53978611111111},
    {"id":1174062000,"name":"서울특별시 강동구 천호제3동","lon":127.13196666666666,"lat":37.53697222222222},
    {"id":1174064000,"name":"서울특별시 강동구 성내제1동","lon":127.12603055555554,"lat":37.52784722222222},
    {"id":1174065000,"name":"서울특별시 강동구 성내제2동","lon":127.1315861111111,"lat":37.529602777777775},
    {"id":1174066000,"name":"서울특별시 강동구 성내제3동","lon":127.13488611111111,"lat":37.52337222222222},
    {"id":1174068500,"name":"서울특별시 강동구 길동","lon":127.1461684,"lat":37.5392169},
    {"id":1174069000,"name":"서울특별시 강동구 둔촌제1동","lon":127.13883055555556,"lat":37.52075},
    {"id":1174070000,"name":"서울특별시 강동구 둔촌제2동","lon":127.14401944444445,"lat":37.53055},
    {"id":2611051000,"name":"부산광역시 중구 중앙동","lon":129.03758888888888,"lat":35.09818611111111},
    {"id":2611052000,"name":"부산광역시 중구 동광동","lon":129.0368777777778,"lat":35.101933333333335},
    {"id":2611053000,"name":"부산광역시 중구 대청동","lon":129.03333333333336,"lat":35.101147222222224},
    {"id":2611054500,"name":"부산광역시 중구 보수동","lon":129.02762222222225,"lat":35.10070277777778},
    {"id":2611056000,"name":"부산광역시 중구 부평동","lon":129.02879722222224,"lat":35.097297222222224},
    {"id":2611057000,"name":"부산광역시 중구 광복동","lon":129.0327527777778,"lat":35.09685833333334},
    {"id":2611058000,"name":"부산광역시 중구 남포동","lon":129.03408611111112,"lat":35.09430555555556},
    {"id":2611059000,"name":"부산광역시 중구 영주제1동","lon":129.03728611111111,"lat":35.108047222222226},
    {"id":2611060000,"name":"부산광역시 중구 영주제2동","lon":129.03403333333333,"lat":35.10850833333333},
    {"id":2614051000,"name":"부산광역시 서구 동대신제1동","lon":129.02250833333335,"lat":35.10653611111111},
    {"id":2614052000,"name":"부산광역시 서구 동대신제2동","lon":129.02543055555557,"lat":35.10985277777778},
    {"id":2614053000,"name":"부산광역시 서구 동대신제3동","lon":129.01950833333333,"lat":35.11133888888889},
    {"id":2614054000,"name":"부산광역시 서구 서대신제1동","lon":129.01667500000002,"lat":35.10801388888889},
    {"id":2614056000,"name":"부산광역시 서구 서대신제3동","lon":129.0141888888889,"lat":35.11036666666667},
    {"id":2614057000,"name":"부산광역시 서구 서대신제4동","lon":129.01483333333334,"lat":35.11607222222222},
    {"id":2614059000,"name":"부산광역시 서구 부민동","lon":129.0207527777778,"lat":35.10068611111111},
    {"id":2614061500,"name":"부산광역시 서구 아미동","lon":129.01768611111112,"lat":35.09708888888889},
    {"id":2614063000,"name":"부산광역시 서구 초장동","lon":129.0225638888889,"lat":35.09287777777778},
    {"id":2614064000,"name":"부산광역시 서구 충무동","lon":129.02389722222225,"lat":35.09493611111111},
    {"id":2614065000,"name":"부산광역시 서구 남부민제1동","lon":129.0255638888889,"lat":35.08965833333333},
    {"id":2614066000,"name":"부산광역시 서구 남부민제2동","lon":129.0218638888889,"lat":35.08155},
    {"id":2614068000,"name":"부산광역시 서구 암남동","lon":129.02360000000002,"lat":35.076905555555555},
    {"id":2617051000,"name":"부산광역시 동구 초량제1동","lon":129.03918888888887,"lat":35.11087777777778},
    {"id":2617052000,"name":"부산광역시 동구 초량제2동","lon":129.0408,"lat":35.11344722222223},
    {"id":2617053000,"name":"부산광역시 동구 초량제3동","lon":129.04206666666667,"lat":35.118186111111115},
    {"id":2617055000,"name":"부산광역시 동구 초량제6동","lon":129.03674444444445,"lat":35.122908333333335},
    {"id":2617056000,"name":"부산광역시 동구 수정제1동","lon":129.04453333333333,"lat":35.122275},
    {"id":2617057000,"name":"부산광역시 동구 수정제2동","lon":129.0472638888889,"lat":35.12525277777778},
    {"id":2617059000,"name":"부산광역시 동구 수정제4동","lon":129.0429638888889,"lat":35.12399722222222},
    {"id":2617060000,"name":"부산광역시 동구 수정제5동","lon":129.04468888888889,"lat":35.13073333333333},
    {"id":2617064500,"name":"부산광역시 동구 좌천동","lon":129.0527917,"lat":35.13198611},
    {"id":2617065000,"name":"부산광역시 동구 범일제1동","lon":129.05830833333334,"lat":35.136272222222225},
    {"id":2617066000,"name":"부산광역시 동구 범일제2동","lon":129.0619861111111,"lat":35.13187222222222},
    {"id":2617068000,"name":"부산광역시 동구 범일제5동","lon":129.05601944444444,"lat":35.12730555555556},
    {"id":2620053000,"name":"부산광역시 영도구 남항동","lon":129.03985277777778,"lat":35.08678888888889},
    {"id":2620054000,"name":"부산광역시 영도구 영선제1동","lon":129.04703333333333,"lat":35.087161111111115},
    {"id":2620055000,"name":"부산광역시 영도구 영선제2동","lon":129.04364166666667,"lat":35.083850000000005},
    {"id":2620058500,"name":"부산광역시 영도구 신선동","lon":129.04745555555556,"lat":35.080244444444446},
    {"id":2620059000,"name":"부산광역시 영도구 봉래제1동","lon":129.04662222222223,"lat":35.09039166666667},
    {"id":2620060500,"name":"부산광역시 영도구 봉래제2동","lon":129.0483972222222,"lat":35.09110833333334},
    {"id":2620063000,"name":"부산광역시 영도구 청학제1동","lon":129.06068611111112,"lat":35.093833333333336},
    {"id":2620064000,"name":"부산광역시 영도구 청학제2동","lon":129.06803055555554,"lat":35.088825},
    {"id":2620065000,"name":"부산광역시 영도구 동삼제1동","lon":129.07070833333333,"lat":35.07179444444445},
    {"id":2620066000,"name":"부산광역시 영도구 동삼제2동","lon":129.0829222222222,"lat":35.06474166666666},
    {"id":2620067000,"name":"부산광역시 영도구 동삼제3동","lon":129.0709222222222,"lat":35.08158055555556},
    {"id":2623051000,"name":"부산광역시 부산진구 부전제1동","lon":129.06092222222225,"lat":35.15725833333333},
    {"id":2623052000,"name":"부산광역시 부산진구 부전제2동","lon":129.059075,"lat":35.149522222222224},
    {"id":2623054000,"name":"부산광역시 부산진구 연지동","lon":129.05500833333335,"lat":35.169713888888886},
    {"id":2623055000,"name":"부산광역시 부산진구 초읍동","lon":129.04983333333334,"lat":35.175625},
    {"id":2623056000,"name":"부산광역시 부산진구 양정제1동","lon":129.06665555555557,"lat":35.17139722222222},
    {"id":2623057000,"name":"부산광역시 부산진구 양정제2동","lon":129.07798888888888,"lat":35.169780555555555},
    {"id":2623060000,"name":"부산광역시 부산진구 전포제1동","lon":129.06962222222222,"lat":35.151269444444445},
    {"id":2623061000,"name":"부산광역시 부산진구 전포제2동","lon":129.06844444444445,"lat":35.158630555555554},
    {"id":2623064000,"name":"부산광역시 부산진구 부암제1동","lon":129.0517777777778,"lat":35.16046111111111},
    {"id":2623066000,"name":"부산광역시 부산진구 부암제3동","lon":129.04205555555555,"lat":35.16592222222222},
    {"id":2623067000,"name":"부산광역시 부산진구 당감제1동","lon":129.04236666666665,"lat":35.1597},
    {"id":2623068000,"name":"부산광역시 부산진구 당감제2동","lon":129.05027777777778,"lat":35.154888888888884},
    {"id":2623070000,"name":"부산광역시 부산진구 당감제4동","lon":129.03879722222223,"lat":35.16491388888889},
    {"id":2623071000,"name":"부산광역시 부산진구 가야제1동","lon":129.04405277777778,"lat":35.15191111111111},
    {"id":2623072000,"name":"부산광역시 부산진구 가야제2동","lon":129.0312888888889,"lat":35.146680555555555},
    {"id":2623074000,"name":"부산광역시 부산진구 개금제1동","lon":129.024175,"lat":35.149566666666665},
    {"id":2623075000,"name":"부산광역시 부산진구 개금제2동","lon":129.0216888888889,"lat":35.14170555555555},
    {"id":2623076000,"name":"부산광역시 부산진구 개금제3동","lon":129.02422222222225,"lat":35.15268611111111},
    {"id":2623077000,"name":"부산광역시 부산진구 범천제1동","lon":129.0633,"lat":35.14385},
    {"id":2623078000,"name":"부산광역시 부산진구 범천제2동","lon":129.05839722222223,"lat":35.143277777777776},
    {"id":2626051000,"name":"부산광역시 동래구 수민동","lon":129.0933888888889,"lat":35.192975},
    {"id":2626052000,"name":"부산광역시 동래구 복산동","lon":129.088375,"lat":35.202708333333334},
    {"id":2626054500,"name":"부산광역시 동래구 명륜동","lon":129.081561,"lat":35.2124914},
    {"id":2626055000,"name":"부산광역시 동래구 온천제1동","lon":129.0823861111111,"lat":35.21696666666667},
    {"id":2626056000,"name":"부산광역시 동래구 온천제2동","lon":129.07525277777776,"lat":35.204883333333335},
    {"id":2626057000,"name":"부산광역시 동래구 온천제3동","lon":129.06855277777777,"lat":35.20186666666667},
    {"id":2626058000,"name":"부산광역시 동래구 사직제1동","lon":129.06434444444446,"lat":35.19593333333333},
    {"id":2626059000,"name":"부산광역시 동래구 사직제2동","lon":129.05916666666667,"lat":35.197174999999994},
    {"id":2626060000,"name":"부산광역시 동래구 사직제3동","lon":129.0717222222222,"lat":35.19638888888888},
    {"id":2626074000,"name":"부산광역시 동래구 안락제1동","lon":129.10091111111112,"lat":35.19404722222222},
    {"id":2626075000,"name":"부산광역시 동래구 안락제2동","lon":129.1123111111111,"lat":35.19464444444444},
    {"id":2626076100,"name":"부산광역시 동래구 명장제1동","lon":129.10649999999998,"lat":35.20158055555556},
    {"id":2626076200,"name":"부산광역시 동래구 명장제2동","lon":129.10465555555555,"lat":35.20486666666667},
    {"id":2629051000,"name":"부산광역시 남구 대연제1동","lon":129.09571944444446,"lat":35.13146388888889},
    {"id":2629053000,"name":"부산광역시 남구 대연제3동","lon":129.10257777777778,"lat":35.13163611111111},
    {"id":2629054000,"name":"부산광역시 남구 대연제4동","lon":129.09361944444444,"lat":35.12671111111111},
    {"id":2629055000,"name":"부산광역시 남구 대연제5동","lon":129.0924888888889,"lat":35.13536944444444},
    {"id":2629056000,"name":"부산광역시 남구 대연제6동","lon":129.08584166666668,"lat":35.13186666666667},
    {"id":2629057000,"name":"부산광역시 남구 용호제1동","lon":129.11129722222222,"lat":35.117713888888886},
    {"id":2629058000,"name":"부산광역시 남구 용호제2동","lon":129.1156861111111,"lat":35.11175},
    {"id":2629059000,"name":"부산광역시 남구 용호제3동","lon":129.11506388888887,"lat":35.11792222222222},
    {"id":2629060000,"name":"부산광역시 남구 용호제4동","lon":129.11266388888887,"lat":35.110144444444444},
    {"id":2629061000,"name":"부산광역시 남구 용당동","lon":129.09745555555557,"lat":35.11441111111111},
    {"id":2629062000,"name":"부산광역시 남구 감만제1동","lon":129.08288888888887,"lat":35.11378888888889},
    {"id":2629063000,"name":"부산광역시 남구 감만제2동","lon":129.0867777777778,"lat":35.119458333333334},
    {"id":2629064500,"name":"부산광역시 남구 우암동","lon":129.0758507,"lat":35.12499999},
    {"id":2629068000,"name":"부산광역시 남구 문현제1동","lon":129.07357777777779,"lat":35.13939444444444},
    {"id":2629069000,"name":"부산광역시 남구 문현제2동","lon":129.07099722222222,"lat":35.14222222222222},
    {"id":2629070000,"name":"부산광역시 남구 문현제3동","lon":129.07391944444444,"lat":35.13512222222222},
    {"id":2629071000,"name":"부산광역시 남구 문현제4동","lon":129.0712,"lat":35.13303055555556},
    {"id":2632051000,"name":"부산광역시 북구 구포제1동","lon":129.00341111111112,"lat":35.20336944444445},
    {"id":2632052000,"name":"부산광역시 북구 구포제2동","lon":129.00024444444443,"lat":35.199636111111104},
    {"id":2632052100,"name":"부산광역시 북구 구포제3동","lon":129.01104444444445,"lat":35.19175833333333},
    {"id":2632053000,"name":"부산광역시 북구 금곡동","lon":129.0150888888889,"lat":35.24700555555555},
    {"id":2632054100,"name":"부산광역시 북구 화명제1동","lon":129.01246666666665,"lat":35.221694444444445},
    {"id":2632054200,"name":"부산광역시 북구 화명제2동","lon":129.02202222222223,"lat":35.240525},
    {"id":2632054300,"name":"부산광역시 북구 화명제3동","lon":129.01233333333334,"lat":35.228772222222226},
    {"id":2632055000,"name":"부산광역시 북구 덕천제1동","lon":129.01901944444447,"lat":35.20938888888889},
    {"id":2632056000,"name":"부산광역시 북구 덕천제2동","lon":129.01024444444445,"lat":35.20926666666667},
    {"id":2632056100,"name":"부산광역시 북구 덕천제3동","lon":129.01969722222225,"lat":35.20681944444445},
    {"id":2632057100,"name":"부산광역시 북구 만덕제1동","lon":129.03851944444443,"lat":35.21036666666667},
    {"id":2632057200,"name":"부산광역시 북구 만덕제2동","lon":129.03946666666667,"lat":35.207119444444444},
    {"id":2632057300,"name":"부산광역시 북구 만덕제3동","lon":129.03139722222224,"lat":35.208308333333335},
    {"id":2635051000,"name":"부산광역시 해운대구 우제1동","lon":129.1602861111111,"lat":35.15981111111111},
    {"id":2635052000,"name":"부산광역시 해운대구 우제2동","lon":129.1422111111111,"lat":35.16815555555555},
    {"id":2635052500,"name":"부산광역시 해운대구 우제3동","lon":129.1424022,"lat":35.1592915},
    {"id":2635053000,"name":"부산광역시 해운대구 중제1동","lon":129.16647777777777,"lat":35.15945833333333},
    {"id":2635054000,"name":"부산광역시 해운대구 중제2동","lon":129.18210833333333,"lat":35.15879722222222},
    {"id":2635055100,"name":"부산광역시 해운대구 좌제1동","lon":129.17655277777777,"lat":35.16782222222222},
    {"id":2635055200,"name":"부산광역시 해운대구 좌제2동","lon":129.18491944444446,"lat":35.16606111111111},
    {"id":2635055300,"name":"부산광역시 해운대구 좌제3동","lon":129.1689861111111,"lat":35.169263888888885},
    {"id":2635055400,"name":"부산광역시 해운대구 좌제4동","lon":129.17847777777777,"lat":35.17486666666667},
    {"id":2635056000,"name":"부산광역시 해운대구 송정동","lon":129.2058972222222,"lat":35.18056111111111},
    {"id":2635057000,"name":"부산광역시 해운대구 반여제1동","lon":129.1211888888889,"lat":35.198055555555555},
    {"id":2635058000,"name":"부산광역시 해운대구 반여제2동","lon":129.13235277777778,"lat":35.19283055555555},
    {"id":2635059000,"name":"부산광역시 해운대구 반여제3동","lon":129.13569999999999,"lat":35.198005555555554},
    {"id":2635059500,"name":"부산광역시 해운대구 반여제4동","lon":129.11934444444447,"lat":35.20610277777778},
    {"id":2635061000,"name":"부산광역시 해운대구 반송제1동","lon":129.15000833333335,"lat":35.22205277777778},
    {"id":2635062000,"name":"부산광역시 해운대구 반송제2동","lon":129.16269722222222,"lat":35.22576388888889},
    {"id":2635065000,"name":"부산광역시 해운대구 재송제1동","lon":129.12564444444445,"lat":35.18086388888889},
    {"id":2635066000,"name":"부산광역시 해운대구 재송제2동","lon":129.12771944444447,"lat":35.18655},
    {"id":2638051000,"name":"부산광역시 사하구 괴정제1동","lon":128.99162222222222,"lat":35.09650277777778},
    {"id":2638052000,"name":"부산광역시 사하구 괴정제2동","lon":129.006275,"lat":35.100430555555555},
    {"id":2638053000,"name":"부산광역시 사하구 괴정제3동","lon":129.00042222222223,"lat":35.097211111111115},
    {"id":2638054000,"name":"부산광역시 사하구 괴정제4동","lon":128.9854,"lat":35.09601666666667},
    {"id":2638055000,"name":"부산광역시 사하구 당리동","lon":128.97893055555556,"lat":35.09984444444445},
    {"id":2638056100,"name":"부산광역시 사하구 하단제1동","lon":128.96653333333333,"lat":35.100833333333334},
    {"id":2638056200,"name":"부산광역시 사하구 하단제2동","lon":128.9626861111111,"lat":35.11143333333334},
    {"id":2638057100,"name":"부산광역시 사하구 신평제1동","lon":128.976575,"lat":35.086913888888894},
    {"id":2638057200,"name":"부산광역시 사하구 신평제2동","lon":128.9616333333333,"lat":35.09153333333334},
    {"id":2638058000,"name":"부산광역시 사하구 장림제1동","lon":128.96914166666667,"lat":35.079819444444446},
    {"id":2638059000,"name":"부산광역시 사하구 장림제2동","lon":128.97484444444444,"lat":35.07472777777778},
    {"id":2638060100,"name":"부산광역시 사하구 다대제1동","lon":128.9735777777778,"lat":35.056102777777774},
    {"id":2638060200,"name":"부산광역시 사하구 다대제2동","lon":128.98443333333333,"lat":35.06032222222222},
    {"id":2638061000,"name":"부산광역시 사하구 구평동","lon":128.99004166666666,"lat":35.07881944444445},
    {"id":2638062000,"name":"부산광역시 사하구 감천제1동","lon":129.00691111111112,"lat":35.08490555555556},
    {"id":2638063000,"name":"부산광역시 사하구 감천제2동","lon":129.0116,"lat":35.091525000000004},
    {"id":2641051000,"name":"부산광역시 금정구 서제1동","lon":129.1013972222222,"lat":35.21526111111111},
    {"id":2641052000,"name":"부산광역시 금정구 서제2동","lon":129.10693333333333,"lat":35.20978055555556},
    {"id":2641053000,"name":"부산광역시 금정구 서제3동","lon":129.10973055555556,"lat":35.212375},
    {"id":2641055500,"name":"부산광역시 금정구 금사회동동","lon":129.113375,"lat":35.21723611111111},
    {"id":2641057000,"name":"부산광역시 금정구 부곡제1동","lon":129.0944,"lat":35.22135},
    {"id":2641058000,"name":"부산광역시 금정구 부곡제2동","lon":129.095,"lat":35.22672777777778},
    {"id":2641059000,"name":"부산광역시 금정구 부곡제3동","lon":129.09613333333334,"lat":35.237405555555554},
    {"id":2641059100,"name":"부산광역시 금정구 부곡제4동","lon":129.090875,"lat":35.21681388888889},
    {"id":2641060000,"name":"부산광역시 금정구 장전제1동","lon":129.08721111111112,"lat":35.23466666666667},
    {"id":2641061000,"name":"부산광역시 금정구 장전제2동","lon":129.08437777777777,"lat":35.22253055555556},
    {"id":2641063500,"name":"부산광역시 금정구 선두구동","lon":129.11559722222222,"lat":35.295208333333335},
    {"id":2641066500,"name":"부산광역시 금정구 청룡노포동","lon":129.09205555555556,"lat":35.27205},
    {"id":2641067000,"name":"부산광역시 금정구 남산동","lon":129.09462222222223,"lat":35.26855555555556},
    {"id":2641068000,"name":"부산광역시 금정구 구서제1동","lon":129.08923055555556,"lat":35.24199166666667},
    {"id":2641069000,"name":"부산광역시 금정구 구서제2동","lon":129.0928888888889,"lat":35.25208333333333},
    {"id":2641070000,"name":"부산광역시 금정구 금성동","lon":129.05834166666668,"lat":35.24725277777778},
    {"id":2644051000,"name":"부산광역시 강서구 대저1동","lon":128.98285555555555,"lat":35.211394444444444},
    {"id":2644052000,"name":"부산광역시 강서구 대저2동","lon":128.9587,"lat":35.17539444444444},
    {"id":2644053000,"name":"부산광역시 강서구 강동동","lon":128.93750833333334,"lat":35.21146388888889},
    {"id":2644053500,"name":"부산광역시 강서구 명지1동","lon":128.926502,"lat":35.108091},
    {"id":2644054500,"name":"부산광역시 강서구 명지2동","lon":128.899758,"lat":35.084587},
    {"id":2644055000,"name":"부산광역시 강서구 가락동","lon":128.904075,"lat":35.19331666666666},
    {"id":2644056000,"name":"부산광역시 강서구 녹산동","lon":128.86080833333332,"lat":35.12346388888889},
    {"id":2644058000,"name":"부산광역시 강서구 가덕도동","lon":128.8140333,"lat":35.05261667},
    {"id":2647061000,"name":"부산광역시 연제구 거제제1동","lon":129.0830222222222,"lat":35.19171944444444},
    {"id":2647062000,"name":"부산광역시 연제구 거제제2동","lon":129.07254166666667,"lat":35.18457222222222},
    {"id":2647063000,"name":"부산광역시 연제구 거제제3동","lon":129.07530833333334,"lat":35.18103333333333},
    {"id":2647064000,"name":"부산광역시 연제구 거제제4동","lon":129.0700222222222,"lat":35.17613055555555},
    {"id":2647065000,"name":"부산광역시 연제구 연산제1동","lon":129.09384444444444,"lat":35.185877777777776},
    {"id":2647066000,"name":"부산광역시 연제구 연산제2동","lon":129.081575,"lat":35.176833333333335},
    {"id":2647067000,"name":"부산광역시 연제구 연산제3동","lon":129.0965111111111,"lat":35.17026944444444},
    {"id":2647068000,"name":"부산광역시 연제구 연산제4동","lon":129.08715555555557,"lat":35.18321666666667},
    {"id":2647069000,"name":"부산광역시 연제구 연산제5동","lon":129.07835555555556,"lat":35.181419444444444},
    {"id":2647070000,"name":"부산광역시 연제구 연산제6동","lon":129.08794166666667,"lat":35.17577222222222},
    {"id":2647072000,"name":"부산광역시 연제구 연산제8동","lon":129.10333333333332,"lat":35.18403333333333},
    {"id":2647073000,"name":"부산광역시 연제구 연산제9동","lon":129.10719722222223,"lat":35.18554722222222},
    {"id":2650066000,"name":"부산광역시 수영구 남천제1동","lon":129.1125972222222,"lat":35.139575},
    {"id":2650067000,"name":"부산광역시 수영구 남천제2동","lon":129.11698611111112,"lat":35.14075277777778},
    {"id":2650073000,"name":"부산광역시 수영구 수영동","lon":129.11828888888888,"lat":35.16735833333333},
    {"id":2650074000,"name":"부산광역시 수영구 망미제1동","lon":129.10324166666666,"lat":35.17135555555555},
    {"id":2650075000,"name":"부산광역시 수영구 망미제2동","lon":129.11754166666668,"lat":35.172152777777775},
    {"id":2650076000,"name":"부산광역시 수영구 광안제1동","lon":129.11473055555555,"lat":35.159866666666666},
    {"id":2650077000,"name":"부산광역시 수영구 광안제2동","lon":129.11486666666667,"lat":35.15067777777778},
    {"id":2650078000,"name":"부산광역시 수영구 광안제3동","lon":129.11585555555556,"lat":35.16482222222222},
    {"id":2650079000,"name":"부산광역시 수영구 광안제4동","lon":129.11366666666666,"lat":35.15196666666667},
    {"id":2650080000,"name":"부산광역시 수영구 민락동","lon":129.1276777777778,"lat":35.15416666666667},
    {"id":2653058000,"name":"부산광역시 사상구 삼락동","lon":128.97996666666666,"lat":35.17389444444444},
    {"id":2653059100,"name":"부산광역시 사상구 모라제1동","lon":128.98968888888888,"lat":35.18453611111111},
    {"id":2653059300,"name":"부산광역시 사상구 모라제3동","lon":128.9983333333333,"lat":35.18155833333333},
    {"id":2653060000,"name":"부산광역시 사상구 덕포제1동","lon":128.98553055555556,"lat":35.16728333333333},
    {"id":2653061000,"name":"부산광역시 사상구 덕포제2동","lon":128.98517777777778,"lat":35.17138055555555},
    {"id":2653062000,"name":"부산광역시 사상구 괘법동","lon":128.98944444444444,"lat":35.16067222222222},
    {"id":2653064500,"name":"부산광역시 사상구 감전동","lon":128.98170833333333,"lat":35.15123333333333},
    {"id":2653065000,"name":"부산광역시 사상구 주례제1동","lon":129.00014444444443,"lat":35.14861944444444},
    {"id":2653066000,"name":"부산광역시 사상구 주례제2동","lon":129.01273333333333,"lat":35.14698888888889},
    {"id":2653066100,"name":"부산광역시 사상구 주례제3동","lon":129.00372222222222,"lat":35.14428888888889},
    {"id":2653067000,"name":"부산광역시 사상구 학장동","lon":128.98967777777776,"lat":35.140991666666665},
    {"id":2653068000,"name":"부산광역시 사상구 엄궁동","lon":128.97444444444446,"lat":35.1256},
    {"id":2671025000,"name":"부산광역시 기장군 기장읍","lon":129.21817777777778,"lat":35.23560277777778},
    {"id":2671025300,"name":"부산광역시 기장군 장안읍","lon":129.24628888888887,"lat":35.31070277777778},
    {"id":2671025600,"name":"부산광역시 기장군 정관읍","lon":129.18267777777777,"lat":35.322375},
    {"id":2671031000,"name":"부산광역시 기장군 일광면","lon":129.23464166666665,"lat":35.260869444444445},
    {"id":2671033000,"name":"부산광역시 기장군 철마면","lon":129.15202222222223,"lat":35.27219722222222},
    {"id":2711051700,"name":"대구광역시 중구 동인동","lon":128.609131,"lat":35.86790482},
    {"id":2711054500,"name":"대구광역시 중구 삼덕동","lon":128.61116666666666,"lat":35.862575},
    {"id":2711056500,"name":"대구광역시 중구 성내1동","lon":128.60035555555555,"lat":35.86625},
    {"id":2711057500,"name":"대구광역시 중구 성내2동","lon":128.59262222222222,"lat":35.865347222222226},
    {"id":2711058500,"name":"대구광역시 중구 성내3동","lon":128.58794166666667,"lat":35.86961111111111},
    {"id":2711059500,"name":"대구광역시 중구 대신동","lon":128.57944444444445,"lat":35.86320277777778},
    {"id":2711064000,"name":"대구광역시 중구 남산1동","lon":128.59264444444446,"lat":35.85639444444445},
    {"id":2711065000,"name":"대구광역시 중구 남산2동","lon":128.59175555555555,"lat":35.86106111111111},
    {"id":2711066000,"name":"대구광역시 중구 남산3동","lon":128.58719722222224,"lat":35.85653333333333},
    {"id":2711067000,"name":"대구광역시 중구 남산4동","lon":128.58271944444445,"lat":35.85523888888889},
    {"id":2711068000,"name":"대구광역시 중구 대봉1동","lon":128.606575,"lat":35.858672222222225},
    {"id":2711069000,"name":"대구광역시 중구 대봉2동","lon":128.60195277777777,"lat":35.85520555555556},
    {"id":2714051000,"name":"대구광역시 동구 신암1동","lon":128.61855277777778,"lat":35.881277777777775},
    {"id":2714052000,"name":"대구광역시 동구 신암2동","lon":128.61653333333334,"lat":35.87642777777778},
    {"id":2714053000,"name":"대구광역시 동구 신암3동","lon":128.62537500000002,"lat":35.87662777777778},
    {"id":2714054000,"name":"대구광역시 동구 신암4동","lon":128.6315111111111,"lat":35.88209722222222},
    {"id":2714054100,"name":"대구광역시 동구 신암5동","lon":128.63524444444442,"lat":35.886725},
    {"id":2714055500,"name":"대구광역시 동구 신천1.2동","lon":128.61679722222223,"lat":35.86711944444445},
    {"id":2714057000,"name":"대구광역시 동구 신천3동","lon":128.62589722222222,"lat":35.87226666666667},
    {"id":2714058000,"name":"대구광역시 동구 신천4동","lon":128.63148611111112,"lat":35.86878611111111},
    {"id":2714059000,"name":"대구광역시 동구 효목1동","lon":128.64746666666665,"lat":35.87815555555556},
    {"id":2714060000,"name":"대구광역시 동구 효목2동","lon":128.6404222222222,"lat":35.87463611111111},
    {"id":2714061500,"name":"대구광역시 동구 도평동","lon":128.6559861111111,"lat":35.90793055555555},
    {"id":2714062000,"name":"대구광역시 동구 불로.봉무동","lon":128.64162222222222,"lat":35.90728333333333},
    {"id":2714064000,"name":"대구광역시 동구 지저동","lon":128.64045555555555,"lat":35.89073055555556},
    {"id":2714065500,"name":"대구광역시 동구 동촌동","lon":128.6519,"lat":35.88388888888889},
    {"id":2714067000,"name":"대구광역시 동구 방촌동","lon":128.667475,"lat":35.87708333333333},
    {"id":2714068500,"name":"대구광역시 동구 해안동","lon":128.68433055555556,"lat":35.89219166666667},
    {"id":2714072000,"name":"대구광역시 동구 안심1동","lon":128.70433055555554,"lat":35.867383333333336},
    {"id":2714073000,"name":"대구광역시 동구 안심2동","lon":128.6892638888889,"lat":35.872436111111114},
    {"id":2714074200,"name":"대구광역시 동구 안심3동","lon":128.7224295,"lat":35.8678684},
    {"id":2714074500,"name":"대구광역시 동구 안심3.4동","lon":128.71313333333333,"lat":35.86734444444445},
    {"id":2714074700,"name":"대구광역시 동구 안심4동","lon":128.711046,"lat":35.870105},
    {"id":2714075500,"name":"대구광역시 동구 혁신동","lon":128.7109768,"lat":35.8796992},
    {"id":2714076000,"name":"대구광역시 동구 공산동","lon":128.64646666666667,"lat":35.93722222222222},
    {"id":2717051000,"name":"대구광역시 서구 내당1동","lon":128.5629638888889,"lat":35.857675},
    {"id":2717052500,"name":"대구광역시 서구 내당2.3동","lon":128.5766888888889,"lat":35.86428333333333},
    {"id":2717054000,"name":"대구광역시 서구 내당4동","lon":128.55380833333334,"lat":35.85776666666667},
    {"id":2717055000,"name":"대구광역시 서구 비산1동","lon":128.57124166666665,"lat":35.878191666666666},
    {"id":2717056500,"name":"대구광역시 서구 비산2.3동","lon":128.576975,"lat":35.87272222222222},
    {"id":2717058000,"name":"대구광역시 서구 비산4동","lon":128.57629722222222,"lat":35.86678333333333},
    {"id":2717059000,"name":"대구광역시 서구 비산5동","lon":128.57184444444445,"lat":35.883377777777774},
    {"id":2717060000,"name":"대구광역시 서구 비산6동","lon":128.57133055555556,"lat":35.873333333333335},
    {"id":2717061000,"name":"대구광역시 서구 비산7동","lon":128.55574166666668,"lat":35.88503611111111},
    {"id":2717062000,"name":"대구광역시 서구 평리1동","lon":128.5654888888889,"lat":35.87260555555556},
    {"id":2717063000,"name":"대구광역시 서구 평리2동","lon":128.5659638888889,"lat":35.86826388888889},
    {"id":2717064000,"name":"대구광역시 서구 평리3동","lon":128.56351944444447,"lat":35.872883333333334},
    {"id":2717065000,"name":"대구광역시 서구 평리4동","lon":128.5588888888889,"lat":35.86434444444445},
    {"id":2717066000,"name":"대구광역시 서구 평리5동","lon":128.55095555555556,"lat":35.8708},
    {"id":2717066100,"name":"대구광역시 서구 평리6동","lon":128.55033333333336,"lat":35.87224166666667},
    {"id":2717067500,"name":"대구광역시 서구 상중이동","lon":128.54647777777777,"lat":35.864983333333335},
    {"id":2717069500,"name":"대구광역시 서구 원대동","lon":128.57662222222223,"lat":35.883786111111114},
    {"id":2720051500,"name":"대구광역시 남구 이천동","lon":128.60166666666666,"lat":35.85071388888889},
    {"id":2720053000,"name":"대구광역시 남구 봉덕1동","lon":128.60011111111112,"lat":35.84256944444445},
    {"id":2720054000,"name":"대구광역시 남구 봉덕2동","lon":128.60328888888887,"lat":35.84085555555556},
    {"id":2720055000,"name":"대구광역시 남구 봉덕3동","lon":128.6004638888889,"lat":35.83869444444445},
    {"id":2720056000,"name":"대구광역시 남구 대명1동","lon":128.57912222222222,"lat":35.83728055555556},
    {"id":2720057100,"name":"대구광역시 남구 대명2동","lon":128.58887777777778,"lat":35.85230555555556},
    {"id":2720058600,"name":"대구광역시 남구 대명3동","lon":128.5813222222222,"lat":35.84936388888889},
    {"id":2720059000,"name":"대구광역시 남구 대명4동","lon":128.57455555555555,"lat":35.84495277777778},
    {"id":2720060000,"name":"대구광역시 남구 대명5동","lon":128.5899888888889,"lat":35.84026111111111},
    {"id":2720061000,"name":"대구광역시 남구 대명6동","lon":128.56804444444444,"lat":35.83209166666667},
    {"id":2720064000,"name":"대구광역시 남구 대명9동","lon":128.58139722222222,"lat":35.834272222222225},
    {"id":2720065000,"name":"대구광역시 남구 대명10동","lon":128.57118888888888,"lat":35.837050000000005},
    {"id":2720066000,"name":"대구광역시 남구 대명11동","lon":128.5626527777778,"lat":35.83316388888889},
    {"id":2723051000,"name":"대구광역시 북구 고성동","lon":128.58582222222222,"lat":35.87895},
    {"id":2723052600,"name":"대구광역시 북구 칠성동","lon":128.60210833333332,"lat":35.87621111111111},
    {"id":2723055000,"name":"대구광역시 북구 침산1동","lon":128.5833888888889,"lat":35.887375},
    {"id":2723056000,"name":"대구광역시 북구 침산2동","lon":128.599175,"lat":35.88427222222222},
    {"id":2723057000,"name":"대구광역시 북구 침산3동","lon":128.5915527777778,"lat":35.88914444444445},
    {"id":2723061000,"name":"대구광역시 북구 산격1동","lon":128.59691111111113,"lat":35.889652777777776},
    {"id":2723062000,"name":"대구광역시 북구 산격2동","lon":128.6114861111111,"lat":35.89871111111111},
    {"id":2723063000,"name":"대구광역시 북구 산격3동","lon":128.61049722222222,"lat":35.89053055555556},
    {"id":2723063100,"name":"대구광역시 북구 산격4동","lon":128.60641944444444,"lat":35.88930555555555},
    {"id":2723064500,"name":"대구광역시 북구 대현동","lon":128.6058302,"lat":35.88218385},
    {"id":2723067100,"name":"대구광역시 북구 복현1동","lon":128.6207527777778,"lat":35.89073888888889},
    {"id":2723067200,"name":"대구광역시 북구 복현2동","lon":128.6276638888889,"lat":35.89243611111111},
    {"id":2723068000,"name":"대구광역시 북구 검단동","lon":128.6294,"lat":35.91045555555555},
    {"id":2723069500,"name":"대구광역시 북구 무태조야동","lon":128.5994,"lat":35.91829444444444},
    {"id":2723071500,"name":"대구광역시 북구 관문동","lon":128.54437777777778,"lat":35.898672222222224},
    {"id":2723072500,"name":"대구광역시 북구 태전1동","lon":128.54579999999999,"lat":35.92072222222222},
    {"id":2723073500,"name":"대구광역시 북구 태전2동","lon":128.5510111111111,"lat":35.918530555555556},
    {"id":2723074500,"name":"대구광역시 북구 구암동","lon":128.57164166666666,"lat":35.93736944444444},
    {"id":2723075000,"name":"대구광역시 북구 관음동","lon":128.54963055555555,"lat":35.94137222222222},
    {"id":2723077000,"name":"대구광역시 북구 읍내동","lon":128.5530777777778,"lat":35.942616666666666},
    {"id":2723078000,"name":"대구광역시 북구 동천동","lon":128.55773333333335,"lat":35.94012222222222},
    {"id":2723079000,"name":"대구광역시 북구 노원동","lon":128.5762125,"lat":35.8901321},
    {"id":2723080000,"name":"대구광역시 북구 국우동","lon":128.5754397,"lat":35.9480283},
    {"id":2726051000,"name":"대구광역시 수성구 범어1동","lon":128.6242777777778,"lat":35.8525},
    {"id":2726052000,"name":"대구광역시 수성구 범어2동","lon":128.63353055555555,"lat":35.85711388888889},
    {"id":2726053000,"name":"대구광역시 수성구 범어3동","lon":128.6200888888889,"lat":35.86316388888889},
    {"id":2726054000,"name":"대구광역시 수성구 범어4동","lon":128.64347777777778,"lat":35.85514722222222},
    {"id":2726055000,"name":"대구광역시 수성구 만촌1동","lon":128.64910833333332,"lat":35.86991388888889},
    {"id":2726056000,"name":"대구광역시 수성구 만촌2동","lon":128.64941944444445,"lat":35.85689722222222},
    {"id":2726056100,"name":"대구광역시 수성구 만촌3동","lon":128.65271944444444,"lat":35.85250555555556},
    {"id":2726057000,"name":"대구광역시 수성구 수성1가동","lon":128.6129,"lat":35.85339444444445},
    {"id":2726058000,"name":"대구광역시 수성구 수성2.3가동","lon":128.62134444444445,"lat":35.852786111111115},
    {"id":2726059000,"name":"대구광역시 수성구 수성4가동","lon":128.6188638888889,"lat":35.85968333333334},
    {"id":2726060100,"name":"대구광역시 수성구 황금1동","lon":128.6404222222222,"lat":35.84096111111111},
    {"id":2726060200,"name":"대구광역시 수성구 황금2동","lon":128.62744166666667,"lat":35.83855555555556},
    {"id":2726061000,"name":"대구광역시 수성구 중동","lon":128.61722222222224,"lat":35.84440277777778},
    {"id":2726062000,"name":"대구광역시 수성구 상동","lon":128.61762222222222,"lat":35.82915833333334},
    {"id":2726063000,"name":"대구광역시 수성구 파동","lon":128.61731111111112,"lat":35.812444444444445},
    {"id":2726064000,"name":"대구광역시 수성구 두산동","lon":128.62280833333335,"lat":35.826350000000005},
    {"id":2726065100,"name":"대구광역시 수성구 지산1동","lon":128.63935277777776,"lat":35.82188888888889},
    {"id":2726065200,"name":"대구광역시 수성구 지산2동","lon":128.6302527777778,"lat":35.82013888888889},
    {"id":2726066100,"name":"대구광역시 수성구 범물1동","lon":128.6481861111111,"lat":35.81482222222222},
    {"id":2726066200,"name":"대구광역시 수성구 범물2동","lon":128.64567777777776,"lat":35.81461944444444},
    {"id":2726067000,"name":"대구광역시 수성구 고산1동","lon":128.71464166666667,"lat":35.83414166666667},
    {"id":2726068000,"name":"대구광역시 수성구 고산2동","lon":128.69734444444444,"lat":35.84034722222223},
    {"id":2726069000,"name":"대구광역시 수성구 고산3동","lon":128.7089111111111,"lat":35.84127222222222},
    {"id":2729051500,"name":"대구광역시 달서구 성당동","lon":128.549565,"lat":35.84294152},
    {"id":2729053500,"name":"대구광역시 달서구 두류1.2동","lon":128.572198,"lat":35.85569344},
    {"id":2729055000,"name":"대구광역시 달서구 두류3동","lon":128.55764444444446,"lat":35.85071388888889},
    {"id":2729055500,"name":"대구광역시 달서구 감삼동","lon":128.54437777777778,"lat":35.84806944444445},
    {"id":2729056300,"name":"대구광역시 달서구 죽전동","lon":128.542,"lat":35.85283888888889},
    {"id":2729056800,"name":"대구광역시 달서구 장기동","lon":128.5321777777778,"lat":35.84039166666667},
    {"id":2729057100,"name":"대구광역시 달서구 용산1동","lon":128.53354444444443,"lat":35.85371666666667},
    {"id":2729057200,"name":"대구광역시 달서구 용산2동","lon":128.5251527777778,"lat":35.85543888888889},
    {"id":2729057600,"name":"대구광역시 달서구 이곡1동","lon":128.5128,"lat":35.8487},
    {"id":2729057700,"name":"대구광역시 달서구 이곡2동","lon":128.5030972222222,"lat":35.852825},
    {"id":2729058500,"name":"대구광역시 달서구 신당동","lon":128.50104444444443,"lat":35.856033333333336},
    {"id":2729059000,"name":"대구광역시 달서구 본리동","lon":128.53985277777778,"lat":35.83912777777778},
    {"id":2729060100,"name":"대구광역시 달서구 월성1동","lon":128.5251777777778,"lat":35.816649999999996},
    {"id":2729060200,"name":"대구광역시 달서구 월성2동","lon":128.53049722222224,"lat":35.82795555555556},
    {"id":2729061500,"name":"대구광역시 달서구 진천동","lon":128.526675,"lat":35.8122},
    {"id":2729062400,"name":"대구광역시 달서구 상인1동","lon":128.54719722222222,"lat":35.811255555555555},
    {"id":2729062500,"name":"대구광역시 달서구 상인2동","lon":128.53851944444443,"lat":35.80954166666666},
    {"id":2729062600,"name":"대구광역시 달서구 상인3동","lon":128.55241944444447,"lat":35.807088888888885},
    {"id":2729062800,"name":"대구광역시 달서구 도원동","lon":128.5344,"lat":35.80446666666666},
    {"id":2729063000,"name":"대구광역시 달서구 송현1동","lon":128.55561944444446,"lat":35.82638055555556},
    {"id":2729064000,"name":"대구광역시 달서구 송현2동","lon":128.54781944444443,"lat":35.82983611111111},
    {"id":2729065000,"name":"대구광역시 달서구 본동","lon":128.5432888888889,"lat":35.83148611111111},
    {"id":2771025000,"name":"대구광역시 달성군 화원읍","lon":128.50305555555556,"lat":35.801116666666665},
    {"id":2771025300,"name":"대구광역시 달성군 논공읍","lon":128.42255555555553,"lat":35.7711},
    {"id":2771025600,"name":"대구광역시 달성군 다사읍","lon":128.456175,"lat":35.85883333333334},
    {"id":2771025900,"name":"대구광역시 달성군 유가읍","lon":128.459773,"lat":35.693876},
    {"id":2771026200,"name":"대구광역시 달성군 옥포읍","lon":128.46597777777777,"lat":35.78664166666667},
    {"id":2771026500,"name":"대구광역시 달성군 현풍읍","lon":128.4497861111111,"lat":35.694313888888885},
    {"id":2771031000,"name":"대구광역시 달성군 가창면","lon":128.6246888888889,"lat":35.79983055555555},
    {"id":2771033000,"name":"대구광역시 달성군 하빈면","lon":128.44771111111112,"lat":35.89794444444444},
    {"id":2771038000,"name":"대구광역시 달성군 구지면","lon":128.41566666666668,"lat":35.655763888888885},
    {"id":2811052000,"name":"인천광역시 중구 연안동","lon":126.6066,"lat":37.45041944444445},
    {"id":2811053000,"name":"인천광역시 중구 신포동","lon":126.62715555555555,"lat":37.467555555555556},
    {"id":2811054000,"name":"인천광역시 중구 신흥동","lon":126.63615277777778,"lat":37.464872222222226},
    {"id":2811056000,"name":"인천광역시 중구 도원동","lon":126.639975,"lat":37.46530555555556},
    {"id":2811057000,"name":"인천광역시 중구 율목동","lon":126.63795555555556,"lat":37.466461111111116},
    {"id":2811058500,"name":"인천광역시 중구 동인천동","lon":126.63111111111111,"lat":37.474047222222225},
    {"id":2811060000,"name":"인천광역시 중구 북성동","lon":126.6206861111111,"lat":37.47255555555556},
    {"id":2811061000,"name":"인천광역시 중구 송월동","lon":126.62630833333333,"lat":37.47719166666667},
    {"id":2811062000,"name":"인천광역시 중구 영종동","lon":126.53299722222222,"lat":37.490747222222225},
    {"id":2811062200,"name":"인천광역시 중구 영종1동","lon":126.554234,"lat":37.489325},
    {"id":2811062800,"name":"인천광역시 중구 운서동","lon":126.4884015,"lat":37.49339138},
    {"id":2811063000,"name":"인천광역시 중구 용유동","lon":126.404475,"lat":37.441069444444445},
    {"id":2814051000,"name":"인천광역시 동구 만석동","lon":126.62753055555555,"lat":37.480444444444444},
    {"id":2814052500,"name":"인천광역시 동구 화수1.화평동","lon":126.63195277777777,"lat":37.47873611111111},
    {"id":2814053000,"name":"인천광역시 동구 화수2동","lon":126.63222222222221,"lat":37.48158055555556},
    {"id":2814055500,"name":"인천광역시 동구 송현1.2동","lon":126.6391888888889,"lat":37.47336388888889},
    {"id":2814057000,"name":"인천광역시 동구 송현3동","lon":126.64472222222223,"lat":37.47951666666667},
    {"id":2814058000,"name":"인천광역시 동구 송림1동","lon":126.64233333333334,"lat":37.473483333333334},
    {"id":2814059000,"name":"인천광역시 동구 송림2동","lon":126.64473055555557,"lat":37.473025},
    {"id":2814060500,"name":"인천광역시 동구 송림3.5동","lon":126.6486,"lat":37.47011666666667},
    {"id":2814061000,"name":"인천광역시 동구 송림4동","lon":126.65202222222223,"lat":37.475461111111116},
    {"id":2814063000,"name":"인천광역시 동구 송림6동","lon":126.65003055555556,"lat":37.47455277777778},
    {"id":2814064000,"name":"인천광역시 동구 금창동","lon":126.64194444444445,"lat":37.46977777777778},
    {"id":2817751000,"name":"인천광역시 미추홀구 숭의2동","lon":126.64931111111112,"lat":37.46025277777778},
    {"id":2817752000,"name":"인천광역시 미추홀구 숭의1,3동","lon":126.6471814,"lat":37.4672428},
    {"id":2817753000,"name":"인천광역시 미추홀구 숭의4동","lon":126.66124166666667,"lat":37.462044444444444},
    {"id":2817754000,"name":"인천광역시 미추홀구 용현1,4동","lon":126.6599204,"lat":37.4562382},
    {"id":2817755000,"name":"인천광역시 미추홀구 용현2동","lon":126.64753055555556,"lat":37.45232222222222},
    {"id":2817756000,"name":"인천광역시 미추홀구 용현3동","lon":126.65396666666668,"lat":37.45390833333334},
    {"id":2817757000,"name":"인천광역시 미추홀구 용현5동","lon":126.64241944444446,"lat":37.44971388888889},
    {"id":2817758000,"name":"인천광역시 미추홀구 학익1동","lon":126.66623333333334,"lat":37.43708333333333},
    {"id":2817759000,"name":"인천광역시 미추홀구 학익2동","lon":126.66950833333334,"lat":37.44376944444444},
    {"id":2817760000,"name":"인천광역시 미추홀구 도화1동","lon":126.67589722222223,"lat":37.4581},
    {"id":2817761000,"name":"인천광역시 미추홀구 도화2,3동","lon":126.6647547,"lat":37.4675264},
    {"id":2817762000,"name":"인천광역시 미추홀구 주안1동","lon":126.6787,"lat":37.46098333333334},
    {"id":2817763000,"name":"인천광역시 미추홀구 주안2동","lon":126.67475277777778,"lat":37.45191388888889},
    {"id":2817764000,"name":"인천광역시 미추홀구 주안3동","lon":126.67611111111111,"lat":37.44208611111111},
    {"id":2817765000,"name":"인천광역시 미추홀구 주안4동","lon":126.69236666666667,"lat":37.45229444444445},
    {"id":2817766000,"name":"인천광역시 미추홀구 주안5동","lon":126.68910833333334,"lat":37.46306944444445},
    {"id":2817767000,"name":"인천광역시 미추홀구 주안6동","lon":126.6915,"lat":37.45965833333334},
    {"id":2817768000,"name":"인천광역시 미추홀구 주안7동","lon":126.67971111111112,"lat":37.44564444444444},
    {"id":2817769000,"name":"인천광역시 미추홀구 주안8동","lon":126.69141944444445,"lat":37.446825},
    {"id":2817770000,"name":"인천광역시 미추홀구 관교동","lon":126.69891111111112,"lat":37.44141666666666},
    {"id":2817771000,"name":"인천광역시 미추홀구 문학동","lon":126.68709722222222,"lat":37.43488055555555},
    {"id":2818563000,"name":"인천광역시 연수구 옥련1동","lon":126.65714166666667,"lat":37.42453333333333},
    {"id":2818564000,"name":"인천광역시 연수구 옥련2동","lon":126.65028611111111,"lat":37.4235},
    {"id":2818575000,"name":"인천광역시 연수구 선학동","lon":126.70343055555556,"lat":37.419691666666665},
    {"id":2818576100,"name":"인천광역시 연수구 연수1동","lon":126.68370833333334,"lat":37.419380555555556},
    {"id":2818576200,"name":"인천광역시 연수구 연수2동","lon":126.68397777777778,"lat":37.40887222222222},
    {"id":2818576300,"name":"인천광역시 연수구 연수3동","lon":126.69415555555555,"lat":37.416599999999995},
    {"id":2818576600,"name":"인천광역시 연수구 청학동","lon":126.66821944444445,"lat":37.4222},
    {"id":2818578000,"name":"인천광역시 연수구 동춘1동","lon":126.67290833333334,"lat":37.40685},
    {"id":2818579000,"name":"인천광역시 연수구 동춘2동","lon":126.67136388888889,"lat":37.39991666666667},
    {"id":2818579500,"name":"인천광역시 연수구 동춘3동","lon":126.68036666666667,"lat":37.405625},
    {"id":2818582000,"name":"인천광역시 연수구 송도1동","lon":126.652082,"lat":37.39105764},
    {"id":2818583000,"name":"인천광역시 연수구 송도2동","lon":126.641639,"lat":37.40328},
    {"id":2818584000,"name":"인천광역시 연수구 송도3동","lon":126.6633667,"lat":37.38167222},
    {"id":2818585000,"name":"인천광역시 연수구 송도4동","lon":126.634928,"lat":37.388109},
    {"id":2818586000,"name":"인천광역시 연수구 송도5동","lon":126.623231,"lat":37.413941},
    {"id":2820051000,"name":"인천광역시 남동구 구월1동","lon":126.71367500000001,"lat":37.44960277777778},
    {"id":2820052000,"name":"인천광역시 남동구 구월2동","lon":126.71542222222223,"lat":37.45326388888889},
    {"id":2820052100,"name":"인천광역시 남동구 구월3동","lon":126.69903333333333,"lat":37.44990833333333},
    {"id":2820052200,"name":"인천광역시 남동구 구월4동","lon":126.72620833333333,"lat":37.44680555555555},
    {"id":2820053000,"name":"인천광역시 남동구 간석1동","lon":126.70736666666667,"lat":37.45582777777778},
    {"id":2820054000,"name":"인천광역시 남동구 간석2동","lon":126.71106666666667,"lat":37.4589},
    {"id":2820055000,"name":"인천광역시 남동구 간석3동","lon":126.7166,"lat":37.46336388888889},
    {"id":2820055100,"name":"인천광역시 남동구 간석4동","lon":126.7028,"lat":37.46378888888889},
    {"id":2820056000,"name":"인천광역시 남동구 만수1동","lon":126.73413333333333,"lat":37.445994444444445},
    {"id":2820057000,"name":"인천광역시 남동구 만수2동","lon":126.73292222222223,"lat":37.45641666666667},
    {"id":2820058000,"name":"인천광역시 남동구 만수3동","lon":126.72517777777777,"lat":37.459161111111115},
    {"id":2820058100,"name":"인천광역시 남동구 만수4동","lon":126.73771111111111,"lat":37.456697222222225},
    {"id":2820058200,"name":"인천광역시 남동구 만수5동","lon":126.7299,"lat":37.45520833333334},
    {"id":2820058300,"name":"인천광역시 남동구 만수6동","lon":126.73975277777778,"lat":37.440913888888886},
    {"id":2820065000,"name":"인천광역시 남동구 장수서창동","lon":126.74945277777778,"lat":37.43308333333333},
    {"id":2820065500,"name":"인천광역시 남동구 서창2동","lon":126.7521618,"lat":37.4240149},
    {"id":2820066000,"name":"인천광역시 남동구 남촌도림동","lon":126.71728611111111,"lat":37.42937777777777},
    {"id":2820069000,"name":"인천광역시 남동구 논현1동","lon":126.7293199,"lat":37.40568978},
    {"id":2820070000,"name":"인천광역시 남동구 논현2동","lon":126.7163943,"lat":37.40422435},
    {"id":2820071000,"name":"인천광역시 남동구 논현고잔동","lon":126.71834166666667,"lat":37.40145277777778},
    {"id":2823751000,"name":"인천광역시 부평구 부평1동","lon":126.72210833333334,"lat":37.49143333333333},
    {"id":2823752000,"name":"인천광역시 부평구 부평2동","lon":126.72004166666667,"lat":37.48408888888889},
    {"id":2823753000,"name":"인천광역시 부평구 부평3동","lon":126.71028611111112,"lat":37.48323888888889},
    {"id":2823754000,"name":"인천광역시 부평구 부평4동","lon":126.727,"lat":37.498041666666666},
    {"id":2823755000,"name":"인천광역시 부평구 부평5동","lon":126.730475,"lat":37.490825},
    {"id":2823756000,"name":"인천광역시 부평구 부평6동","lon":126.72653333333334,"lat":37.48363055555556},
    {"id":2823757000,"name":"인천광역시 부평구 산곡1동","lon":126.70231944444444,"lat":37.50414166666667},
    {"id":2823758000,"name":"인천광역시 부평구 산곡2동","lon":126.71070833333333,"lat":37.50305},
    {"id":2823758100,"name":"인천광역시 부평구 산곡3동","lon":126.71151111111111,"lat":37.48795277777778},
    {"id":2823758200,"name":"인천광역시 부평구 산곡4동","lon":126.71354444444445,"lat":37.499075},
    {"id":2823759100,"name":"인천광역시 부평구 청천1동","lon":126.70389722222222,"lat":37.51392777777778},
    {"id":2823759200,"name":"인천광역시 부평구 청천2동","lon":126.70653333333334,"lat":37.51206111111111},
    {"id":2823764100,"name":"인천광역시 부평구 갈산1동","lon":126.72934444444445,"lat":37.51481111111111},
    {"id":2823764200,"name":"인천광역시 부평구 갈산2동","lon":126.72793055555556,"lat":37.507955555555554},
    {"id":2823764600,"name":"인천광역시 부평구 삼산1동","lon":126.73977777777777,"lat":37.51562777777778},
    {"id":2823764800,"name":"인천광역시 부평구 삼산2동","lon":126.73848611111111,"lat":37.50897222222222},
    {"id":2823765000,"name":"인천광역시 부평구 부개1동","lon":126.73910833333333,"lat":37.4827},
    {"id":2823766000,"name":"인천광역시 부평구 부개2동","lon":126.73922222222222,"lat":37.492000000000004},
    {"id":2823766100,"name":"인천광역시 부평구 부개3동","lon":126.737,"lat":37.50156388888889},
    {"id":2823767000,"name":"인천광역시 부평구 일신동","lon":126.74897777777778,"lat":37.481566666666666},
    {"id":2823768000,"name":"인천광역시 부평구 십정1동","lon":126.6982,"lat":37.472972222222225},
    {"id":2823769000,"name":"인천광역시 부평구 십정2동","lon":126.71013055555557,"lat":37.471000000000004},
    {"id":2824560100,"name":"인천광역시 계양구 효성1동","lon":126.71422222222222,"lat":37.529605555555555},
    {"id":2824560200,"name":"인천광역시 계양구 효성2동","lon":126.71186388888889,"lat":37.52223333333333},
    {"id":2824561100,"name":"인천광역시 계양구 계산1동","lon":126.726575,"lat":37.54010833333333},
    {"id":2824561200,"name":"인천광역시 계양구 계산2동","lon":126.7292638888889,"lat":37.54462222222222},
    {"id":2824561300,"name":"인천광역시 계양구 계산3동","lon":126.73113333333333,"lat":37.53392777777778},
    {"id":2824561400,"name":"인천광역시 계양구 계산4동","lon":126.74389722222222,"lat":37.53178333333333},
    {"id":2824562100,"name":"인천광역시 계양구 작전1동","lon":126.73188611111111,"lat":37.52791944444444},
    {"id":2824562200,"name":"인천광역시 계양구 작전2동","lon":126.72606666666667,"lat":37.53008888888889},
    {"id":2824564000,"name":"인천광역시 계양구 작전서운동","lon":126.73855277777778,"lat":37.525238888888886},
    {"id":2824571000,"name":"인천광역시 계양구 계양1동","lon":126.73624166666667,"lat":37.57410277777778},
    {"id":2824572000,"name":"인천광역시 계양구 계양2동","lon":126.73916666666666,"lat":37.540955555555556},
    {"id":2824573000,"name":"인천광역시 계양구 계양3동","lon":126.7604,"lat":37.55916667},
    {"id":2826051500,"name":"인천광역시 서구 검암경서동","lon":126.67570833333333,"lat":37.56166111111111},
    {"id":2826053000,"name":"인천광역시 서구 연희동","lon":126.68026666666667,"lat":37.546225},
    {"id":2826053600,"name":"인천광역시 서구 청라1동","lon":126.653834,"lat":37.53197235},
    {"id":2826053700,"name":"인천광역시 서구 청라2동","lon":126.6410139,"lat":37.53196667},
    {"id":2826053900,"name":"인천광역시 서구 청라3동","lon":126.6295261,"lat":37.5246933},
    {"id":2826054200,"name":"인천광역시 서구 가정1동","lon":126.67653333333334,"lat":37.520447222222224},
    {"id":2826054300,"name":"인천광역시 서구 가정2동","lon":126.67983333333333,"lat":37.52355277777777},
    {"id":2826054400,"name":"인천광역시 서구 가정3동","lon":126.67991944444445,"lat":37.51271944444444},
    {"id":2826055000,"name":"인천광역시 서구 석남1동","lon":126.67679722222223,"lat":37.50835555555555},
    {"id":2826056000,"name":"인천광역시 서구 석남2동","lon":126.67669722222223,"lat":37.499811111111114},
    {"id":2826056100,"name":"인천광역시 서구 석남3동","lon":126.680375,"lat":37.50541944444444},
    {"id":2826057500,"name":"인천광역시 서구 신현원창동","lon":126.67435277777778,"lat":37.51179722222222},
    {"id":2826058000,"name":"인천광역시 서구 가좌1동","lon":126.67509722222222,"lat":37.49111388888889},
    {"id":2826059000,"name":"인천광역시 서구 가좌2동","lon":126.68695277777778,"lat":37.48805},
    {"id":2826060000,"name":"인천광역시 서구 가좌3동","lon":126.68187777777779,"lat":37.48965277777778},
    {"id":2826061000,"name":"인천광역시 서구 가좌4동","lon":126.68568611111111,"lat":37.48462222222222},
    {"id":2826068000,"name":"인천광역시 서구 검단동","lon":126.663375,"lat":37.599380555555555},
    {"id":2826069000,"name":"인천광역시 서구 불로대곡동","lon":126.69097777777777,"lat":37.614361111111116},
    {"id":2826070000,"name":"인천광역시 서구 원당동","lon":126.69984444444445,"lat":37.59111388888889},
    {"id":2826071000,"name":"인천광역시 서구 당하동","lon":126.67731111111111,"lat":37.59117222222223},
    {"id":2826072000,"name":"인천광역시 서구 오류왕길동","lon":126.637152,"lat":37.597691},
    {"id":2826073000,"name":"인천광역시 서구 마전동","lon":126.6613294,"lat":37.5929616},
    {"id":2871025000,"name":"인천광역시 강화군 강화읍","lon":126.48559722222222,"lat":37.74554166666667},
    {"id":2871031000,"name":"인천광역시 강화군 선원면","lon":126.48688611111112,"lat":37.71050555555556},
    {"id":2871032000,"name":"인천광역시 강화군 불은면","lon":126.48241944444445,"lat":37.68385555555555},
    {"id":2871033000,"name":"인천광역시 강화군 길상면","lon":126.49316666666667,"lat":37.637825},
    {"id":2871034000,"name":"인천광역시 강화군 화도면","lon":126.42227777777778,"lat":37.628908333333335},
    {"id":2871035000,"name":"인천광역시 강화군 양도면","lon":126.42415555555556,"lat":37.65998611111111},
    {"id":2871036000,"name":"인천광역시 강화군 내가면","lon":126.39188611111112,"lat":37.7166},
    {"id":2871037000,"name":"인천광역시 강화군 하점면","lon":126.41364166666668,"lat":37.77193888888889},
    {"id":2871038000,"name":"인천광역시 강화군 양사면","lon":126.41021944444445,"lat":37.795825},
    {"id":2871039000,"name":"인천광역시 강화군 송해면","lon":126.46544166666666,"lat":37.761775},
    {"id":2871040000,"name":"인천광역시 강화군 교동면","lon":126.28261111111111,"lat":37.77744166666667},
    {"id":2871041000,"name":"인천광역시 강화군 삼산면","lon":126.322875,"lat":37.70068055555556},
    {"id":2871042000,"name":"인천광역시 강화군 서도면","lon":126.24210833333333,"lat":37.64758055555556},
    {"id":2872031000,"name":"인천광역시 옹진군 북도면","lon":126.42913333333334,"lat":37.529675},
    {"id":2872033000,"name":"인천광역시 옹진군 백령면","lon":124.7186911,"lat":37.9741764},
    {"id":2872034000,"name":"인천광역시 옹진군 대청면","lon":124.7141,"lat":37.8256},
    {"id":2872035000,"name":"인천광역시 옹진군 덕적면","lon":126.14888888888889,"lat":37.22358055555556},
    {"id":2872036000,"name":"인천광역시 옹진군 영흥면","lon":126.48591111111111,"lat":37.25293888888889},
    {"id":2872037000,"name":"인천광역시 옹진군 자월면","lon":126.31321944444444,"lat":37.24825},
    {"id":2872038000,"name":"인천광역시 옹진군 연평면","lon":125.70410833333334,"lat":37.662388888888884},
    {"id":2911052500,"name":"광주광역시 동구 충장동","lon":126.91937777777778,"lat":35.14628611111111},
    {"id":2911054500,"name":"광주광역시 동구 동명동","lon":126.92724444444445,"lat":35.148113888888886},
    {"id":2911056000,"name":"광주광역시 동구 계림1동","lon":126.92164166666667,"lat":35.155452777777775},
    {"id":2911057000,"name":"광주광역시 동구 계림2동","lon":126.92544166666667,"lat":35.155052777777776},
    {"id":2911059000,"name":"광주광역시 동구 산수1동","lon":126.93277777777779,"lat":35.15425555555555},
    {"id":2911060000,"name":"광주광역시 동구 산수2동","lon":126.93820000000001,"lat":35.15151111111111},
    {"id":2911062000,"name":"광주광역시 동구 지산1동","lon":126.93483333333333,"lat":35.14588611111111},
    {"id":2911063000,"name":"광주광역시 동구 지산2동","lon":126.936575,"lat":35.14490555555555},
    {"id":2911065500,"name":"광주광역시 동구 서남동","lon":126.92521944444445,"lat":35.14185833333333},
    {"id":2911068500,"name":"광주광역시 동구 학동","lon":126.9262638888889,"lat":35.131372222222225},
    {"id":2911071000,"name":"광주광역시 동구 학운동","lon":126.93561111111111,"lat":35.12938888888889},
    {"id":2911073000,"name":"광주광역시 동구 지원1동","lon":126.93302222222222,"lat":35.116055555555555},
    {"id":2911074000,"name":"광주광역시 동구 지원2동","lon":126.93485277777778,"lat":35.11743888888889},
    {"id":2914057500,"name":"광주광역시 서구 양동","lon":126.90290833333334,"lat":35.15172777777778},
    {"id":2914059000,"name":"광주광역시 서구 양3동","lon":126.89622222222224,"lat":35.154313888888886},
    {"id":2914065000,"name":"광주광역시 서구 농성1동","lon":126.89177777777779,"lat":35.15361111111111},
    {"id":2914066000,"name":"광주광역시 서구 농성2동","lon":126.89231111111111,"lat":35.14731111111111},
    {"id":2914073000,"name":"광주광역시 서구 광천동","lon":126.882375,"lat":35.161338888888885},
    {"id":2914074000,"name":"광주광역시 서구 유덕동","lon":126.85401944444443,"lat":35.16224444444444},
    {"id":2914074500,"name":"광주광역시 서구 치평동","lon":126.84517777777778,"lat":35.146991666666665},
    {"id":2914075100,"name":"광주광역시 서구 상무1동","lon":126.86945277777777,"lat":35.15068333333333},
    {"id":2914075200,"name":"광주광역시 서구 상무2동","lon":126.86844444444444,"lat":35.143411111111114},
    {"id":2914076000,"name":"광주광역시 서구 화정1동","lon":126.87979999999999,"lat":35.15311388888889},
    {"id":2914077000,"name":"광주광역시 서구 화정2동","lon":126.88444444444445,"lat":35.14252222222222},
    {"id":2914078000,"name":"광주광역시 서구 화정3동","lon":126.87895277777777,"lat":35.14041388888889},
    {"id":2914079000,"name":"광주광역시 서구 화정4동","lon":126.87595555555555,"lat":35.13879722222222},
    {"id":2914080000,"name":"광주광역시 서구 서창동","lon":126.8322861111111,"lat":35.11143611111111},
    {"id":2914082100,"name":"광주광역시 서구 금호1동","lon":126.85918888888888,"lat":35.132083333333334},
    {"id":2914082400,"name":"광주광역시 서구 금호2동","lon":126.86091111111111,"lat":35.12908888888889},
    {"id":2914083000,"name":"광주광역시 서구 풍암동","lon":126.8806861111111,"lat":35.121725},
    {"id":2914084000,"name":"광주광역시 서구 동천동","lon":126.864704,"lat":35.17129},
    {"id":2915551000,"name":"광주광역시 남구 양림동","lon":126.91773333333335,"lat":35.13384166666667},
    {"id":2915552000,"name":"광주광역시 남구 방림1동","lon":126.92035555555556,"lat":35.131280555555556},
    {"id":2915553000,"name":"광주광역시 남구 방림2동","lon":126.92406666666668,"lat":35.12886388888889},
    {"id":2915553700,"name":"광주광역시 남구 봉선1동","lon":126.9130638888889,"lat":35.12747777777778},
    {"id":2915553800,"name":"광주광역시 남구 봉선2동","lon":126.91583333333334,"lat":35.120444444444445},
    {"id":2915554500,"name":"광주광역시 남구 사직동","lon":126.90995555555556,"lat":35.14271388888889},
    {"id":2915560500,"name":"광주광역시 남구 월산동","lon":126.9046888888889,"lat":35.144475},
    {"id":2915563000,"name":"광주광역시 남구 월산4동","lon":126.89290833333334,"lat":35.14361666666667},
    {"id":2915564000,"name":"광주광역시 남구 월산5동","lon":126.89459722222223,"lat":35.13709166666666},
    {"id":2915567000,"name":"광주광역시 남구 백운1동","lon":126.90597777777778,"lat":35.135175},
    {"id":2915568000,"name":"광주광역시 남구 백운2동","lon":126.90438611111112,"lat":35.13302222222222},
    {"id":2915569000,"name":"광주광역시 남구 주월1동","lon":126.89548888888889,"lat":35.12891111111111},
    {"id":2915570000,"name":"광주광역시 남구 주월2동","lon":126.89620833333333,"lat":35.131597222222226},
    {"id":2915571000,"name":"광주광역시 남구 효덕동","lon":126.90064444444445,"lat":35.10936388888889},
    {"id":2915572000,"name":"광주광역시 남구 송암동","lon":126.87928888888888,"lat":35.108425000000004},
    {"id":2915573000,"name":"광주광역시 남구 대촌동","lon":126.83606666666667,"lat":35.07825555555556},
    {"id":2917051000,"name":"광주광역시 북구 중흥1동","lon":126.91601111111112,"lat":35.15857222222222},
    {"id":2917052000,"name":"광주광역시 북구 중흥2동","lon":126.91129722222223,"lat":35.16520833333333},
    {"id":2917053000,"name":"광주광역시 북구 중흥3동","lon":126.91920833333334,"lat":35.16920277777778},
    {"id":2917055500,"name":"광주광역시 북구 중앙동","lon":126.90825277777779,"lat":35.154375},
    {"id":2917057000,"name":"광주광역시 북구 임동","lon":126.89633055555556,"lat":35.16276944444444},
    {"id":2917058000,"name":"광주광역시 북구 신안동","lon":126.90075277777778,"lat":35.164375},
    {"id":2917059000,"name":"광주광역시 북구 용봉동","lon":126.90330833333334,"lat":35.177305555555556},
    {"id":2917060100,"name":"광주광역시 북구 운암1동","lon":126.87647777777777,"lat":35.171788888888884},
    {"id":2917060200,"name":"광주광역시 북구 운암2동","lon":126.88475277777779,"lat":35.17097222222222},
    {"id":2917060300,"name":"광주광역시 북구 운암3동","lon":126.87643055555554,"lat":35.179674999999996},
    {"id":2917061500,"name":"광주광역시 북구 동림동","lon":126.86859999999999,"lat":35.183880555555554},
    {"id":2917062000,"name":"광주광역시 북구 우산동","lon":126.92302222222223,"lat":35.16724166666666},
    {"id":2917063500,"name":"광주광역시 북구 풍향동","lon":126.92513055555555,"lat":35.16144166666667},
    {"id":2917065000,"name":"광주광역시 북구 문화동","lon":126.93891944444445,"lat":35.178438888888884},
    {"id":2917065600,"name":"광주광역시 북구 문흥1동","lon":126.92370000000001,"lat":35.18369444444444},
    {"id":2917065700,"name":"광주광역시 북구 문흥2동","lon":126.92401944444445,"lat":35.181219444444444},
    {"id":2917066100,"name":"광주광역시 북구 두암1동","lon":126.93098611111111,"lat":35.16796111111111},
    {"id":2917066200,"name":"광주광역시 북구 두암2동","lon":126.934075,"lat":35.17104166666667},
    {"id":2917066300,"name":"광주광역시 북구 두암3동","lon":126.93683055555556,"lat":35.159952777777775},
    {"id":2917066600,"name":"광주광역시 북구 삼각동","lon":126.9016,"lat":35.19620833333333},
    {"id":2917066900,"name":"광주광역시 북구 일곡동","lon":126.89946666666667,"lat":35.20295555555556},
    {"id":2917067300,"name":"광주광역시 북구 매곡동","lon":126.89418888888889,"lat":35.186425},
    {"id":2917067600,"name":"광주광역시 북구 오치1동","lon":126.91000000000001,"lat":35.186119444444444},
    {"id":2917067700,"name":"광주광역시 북구 오치2동","lon":126.90262222222223,"lat":35.187013888888885},
    {"id":2917068500,"name":"광주광역시 북구 석곡동","lon":126.95204166666667,"lat":35.21191944444445},
    {"id":2917069500,"name":"광주광역시 북구 건국동","lon":126.8837,"lat":35.21985},
    {"id":2917069600,"name":"광주광역시 북구 양산동","lon":126.879628,"lat":35.20917073},
    {"id":2917069700,"name":"광주광역시 북구 신용동","lon":126.8629158,"lat":35.2064889},
    {"id":2920051500,"name":"광주광역시 광산구 송정1동","lon":126.8008,"lat":35.13772222222222},
    {"id":2920052500,"name":"광주광역시 광산구 송정2동","lon":126.79670833333333,"lat":35.135977777777775},
    {"id":2920054000,"name":"광주광역시 광산구 도산동","lon":126.7936,"lat":35.126311111111114},
    {"id":2920055000,"name":"광주광역시 광산구 신흥동","lon":126.80274444444444,"lat":35.14210277777778},
    {"id":2920056500,"name":"광주광역시 광산구 어룡동","lon":126.79719722222222,"lat":35.13944166666666},
    {"id":2920058000,"name":"광주광역시 광산구 우산동","lon":126.81153333333333,"lat":35.154741666666666},
    {"id":2920060000,"name":"광주광역시 광산구 월곡1동","lon":126.81193333333333,"lat":35.16881111111111},
    {"id":2920061000,"name":"광주광역시 광산구 월곡2동","lon":126.80986666666666,"lat":35.171302777777775},
    {"id":2920062000,"name":"광주광역시 광산구 비아동","lon":126.82641944444444,"lat":35.218963888888894},
    {"id":2920062400,"name":"광주광역시 광산구 첨단1동","lon":126.84424444444444,"lat":35.21652777777778},
    {"id":2920062600,"name":"광주광역시 광산구 첨단2동","lon":126.845475,"lat":35.21324722222222},
    {"id":2920063000,"name":"광주광역시 광산구 신가동","lon":126.82964166666666,"lat":35.178511111111106},
    {"id":2920063500,"name":"광주광역시 광산구 운남동","lon":126.82385555555555,"lat":35.17034722222222},
    {"id":2920063700,"name":"광주광역시 광산구 수완동","lon":126.825751,"lat":35.1971},
    {"id":2920064000,"name":"광주광역시 광산구 하남동","lon":126.79608611111111,"lat":35.181875},
    {"id":2920065000,"name":"광주광역시 광산구 임곡동","lon":126.74681111111111,"lat":35.21656388888889},
    {"id":2920066000,"name":"광주광역시 광산구 동곡동","lon":126.77413333333334,"lat":35.09560833333334},
    {"id":2920067000,"name":"광주광역시 광산구 평동","lon":126.76233333333333,"lat":35.12167222222222},
    {"id":2920068000,"name":"광주광역시 광산구 삼도동","lon":126.69960833333333,"lat":35.15911666666666},
    {"id":2920069000,"name":"광주광역시 광산구 본량동","lon":126.730875,"lat":35.17769722222222},
    {"id":2920070000,"name":"광주광역시 광산구 신창동","lon":126.8407192,"lat":35.195582},
    {"id":3011051500,"name":"대전광역시 동구 중앙동","lon":127.4311,"lat":36.328919444444445},
    {"id":3011053000,"name":"대전광역시 동구 효동","lon":127.4438638888889,"lat":36.314080555555556},
    {"id":3011054500,"name":"대전광역시 동구 신인동","lon":127.437938,"lat":36.323425},
    {"id":3011055100,"name":"대전광역시 동구 판암1동","lon":127.45985277777778,"lat":36.31440277777777},
    {"id":3011055200,"name":"대전광역시 동구 판암2동","lon":127.45950833333333,"lat":36.317461111111115},
    {"id":3011056000,"name":"대전광역시 동구 용운동","lon":127.4636,"lat":36.325158333333334},
    {"id":3011058500,"name":"대전광역시 동구 대동","lon":127.44786666666667,"lat":36.32541666666667},
    {"id":3011059000,"name":"대전광역시 동구 자양동","lon":127.45124166666668,"lat":36.332461111111115},
    {"id":3011062000,"name":"대전광역시 동구 가양1동","lon":127.44357777777778,"lat":36.34408888888889},
    {"id":3011063000,"name":"대전광역시 동구 가양2동","lon":127.44950833333334,"lat":36.346111111111114},
    {"id":3011064000,"name":"대전광역시 동구 용전동","lon":127.43441111111112,"lat":36.355105555555554},
    {"id":3011066500,"name":"대전광역시 동구 성남동","lon":127.4374361,"lat":36.3445416},
    {"id":3011067000,"name":"대전광역시 동구 홍도동","lon":127.42545555555556,"lat":36.344036111111116},
    {"id":3011069500,"name":"대전광역시 동구 삼성동","lon":127.4221987,"lat":36.3405954},
    {"id":3011072500,"name":"대전광역시 동구 대청동","lon":127.49473055555556,"lat":36.34064722222222},
    {"id":3011074000,"name":"대전광역시 동구 산내동","lon":127.469975,"lat":36.278625},
    {"id":3014053500,"name":"대전광역시 중구 은행선화동","lon":127.4204,"lat":36.324844444444444},
    {"id":3014055000,"name":"대전광역시 중구 목동","lon":127.41462222222223,"lat":36.331450000000004},
    {"id":3014056000,"name":"대전광역시 중구 중촌동","lon":127.412426,"lat":36.33890382},
    {"id":3014057500,"name":"대전광역시 중구 대흥동","lon":127.42803055555557,"lat":36.317397222222226},
    {"id":3014060500,"name":"대전광역시 중구 문창동","lon":127.44005555555556,"lat":36.31327222222222},
    {"id":3014062000,"name":"대전광역시 중구 석교동","lon":127.44453333333334,"lat":36.30672777777777},
    {"id":3014063000,"name":"대전광역시 중구 대사동","lon":127.426975,"lat":36.31471388888889},
    {"id":3014064000,"name":"대전광역시 중구 부사동","lon":127.43582222222223,"lat":36.31127222222222},
    {"id":3014065500,"name":"대전광역시 중구 용두동","lon":127.412475,"lat":36.32256944444445},
    {"id":3014067000,"name":"대전광역시 중구 오류동","lon":127.40592222222223,"lat":36.3226},
    {"id":3014068000,"name":"대전광역시 중구 태평1동","lon":127.39916666666667,"lat":36.32323055555556},
    {"id":3014069000,"name":"대전광역시 중구 태평2동","lon":127.39500000000001,"lat":36.318325},
    {"id":3014070000,"name":"대전광역시 중구 유천1동","lon":127.39736666666667,"lat":36.31213611111111},
    {"id":3014071000,"name":"대전광역시 중구 유천2동","lon":127.40133055555556,"lat":36.31248333333333},
    {"id":3014072000,"name":"대전광역시 중구 문화1동","lon":127.40864166666667,"lat":36.31242777777778},
    {"id":3014073000,"name":"대전광역시 중구 문화2동","lon":127.40134444444445,"lat":36.304788888888886},
    {"id":3014074000,"name":"대전광역시 중구 산성동","lon":127.38821944444445,"lat":36.302436111111106},
    {"id":3017051000,"name":"대전광역시 서구 복수동","lon":127.37597777777778,"lat":36.30383333333333},
    {"id":3017052000,"name":"대전광역시 서구 도마1동","lon":127.3831861111111,"lat":36.313063888888884},
    {"id":3017053000,"name":"대전광역시 서구 도마2동","lon":127.37570833333332,"lat":36.30983055555555},
    {"id":3017053500,"name":"대전광역시 서구 정림동","lon":127.36886388888888,"lat":36.30154722222222},
    {"id":3017054000,"name":"대전광역시 서구 변동","lon":127.3888888888889,"lat":36.32291666666667},
    {"id":3017055000,"name":"대전광역시 서구 용문동","lon":127.3963888888889,"lat":36.33369444444445},
    {"id":3017055500,"name":"대전광역시 서구 탄방동","lon":127.3972638888889,"lat":36.343669444444444},
    {"id":3017056000,"name":"대전광역시 서구 괴정동","lon":127.38414166666668,"lat":36.33425833333334},
    {"id":3017057000,"name":"대전광역시 서구 가장동","lon":127.38735277777778,"lat":36.32715},
    {"id":3017057500,"name":"대전광역시 서구 내동","lon":127.37950833333333,"lat":36.329258333333335},
    {"id":3017058100,"name":"대전광역시 서구 갈마1동","lon":127.369975,"lat":36.34974444444445},
    {"id":3017058200,"name":"대전광역시 서구 갈마2동","lon":127.37702222222221,"lat":36.34375555555556},
    {"id":3017058600,"name":"대전광역시 서구 월평1동","lon":127.35973055555554,"lat":36.351758333333336},
    {"id":3017058700,"name":"대전광역시 서구 월평2동","lon":127.37623333333333,"lat":36.36063055555556},